Location,Site,Depth,Site_Depth_Date,Region,latitude,longitude,Ascidian_erectsingle,CCA,Cyanobacteria_filamentous,Hydrozoan_arborescent,Hydrozoan_bushy,Hydrozoan_encrusting,Macroalgae_articulated_calcareous,Macroalgae_corticated_foliose,Macroalgae_corticated_macrophyte,Macroalgae_Filamentous_Algae,Octocoral_arborescent,Octocoral_bushy,Octocoral_clustered,Octocoral_digitate,Octocoral_encrusting,Octocoral_fan,Octocoral_lobate,Octocoral_massive,Octocoral_whip,Other.mobile.invertebrates,Scleractinian_arborescent,Scleractinian_bushy,Scleractinian_columnar,Scleractinian_encrusting,Scleractinian_foliose,Scleractinian_massive,Scleractinian_tabular,Sponge_branching,Sponge_encrusting,Sponge_massive,Stable.substrate,Turf_Turf,Unstable.substrate,Zoanthid_encrusting,Zoanthid_massive,max.monthly.SST,min.monthly.SST,PAR
82.5_5m_20200622,82.5,5m,82.5_5m_20200622,North,25.1213425,121.8996135,0,0.189267538,6.04648388665308e-05,0,0,0.000508412,0.002390034,0.001172602,0.0005352,0,0,0.00053919,0,0.003249964,0.001459343,0,0.000108431,0,0,6.68537962220601e-05,0,0.002202475,0,0.338319877,0.023527327,0.033075823,0.00104163,0.002764546,0,0,0.007400217,0.364614069,0.021318475,0.004038568,0.002338963,29.60733032,19.2117939,30.22994614
82.5_5m_20210701,82.5,5m,82.5_5m_20210701,North,25.1213425,121.8996135,0,0.277025349,0,0,0,0,0.000945969,0.000990105,0.000541325,0,0,0.000324371,0,0.000805985,1.19434762024197e-05,0,0.009495989,0,0,0,4.11666463872596e-05,0.001481083,0,0.243396383,0.014191305,0.020690165,0.003560873,5.80877563081418e-05,0.000417768,0,0.002358131,0.372227806,0.028953925,0.00951873,0.01296354,29.60733032,19.2117939,30.22994614
82.5_5m_20220809,82.5,5m,82.5_5m_20220809,North,25.1213425,121.8996135,0,0.184055972,0,0,0.000284654,0,0.001441745,4.0840200779935e-05,0.003153217,0,0,0.002383015,0.000379943,0.000598863,0.004936257,0,0.002012602,0,0.002240823,0.001207936,0,0.000628859,0.000980821,0.225078851,0.025064163,0.078114211,0.006869433,0,0.000762945,7.62348570666223e-06,0.002842283,0.424794183,0.016897,0.010503897,0.004719863,29.60733032,19.2117939,30.22994614
Bianfudong_5m_20210716,Bianfudong,5m,Bianfudong_5m_20210716,North,25.1277,121.83139,0,0.366804226,0,0,0.000632802,0,0.004356022,0.0001779,9.46029845984073e-05,0,0,0,0,0.005877671,0,0,0.00931324,0,0,0,0.000424902,0.006300753,0,0.065343606,0.023001417,0.011397624,0.002744397,0,0,0,0.007060226,0.453087131,0.037113333,0.004568158,0.001701987,29.62391472,19.07783508,29.28829956
Bitoujiao_10m_20160816,Bitoujiao,10m,Bitoujiao_10m_20160816,North,25.12486067,121.918353,0,0.222493474,0.001483309,0,0.000619323,0.00014143,0.001161888,0.004179296,0.000419623,0,0,0.001961756,0,0.00350061,0.002715283,0,0,0,0,0,0,0.002090185,0.000679619,0.167315864,0.007434959,0.020180058,0.005070411,0.0031676,0.000758138,0.000390279,0.022296166,0.384607611,0.134242561,0.005355589,0.007734966,29.60877419,19.36293411,30.22994614
Bitoujiao_5m_20190710,Bitoujiao,5m,Bitoujiao_5m_20190710,North,25.12486067,121.918353,0,0.232356872,0,0,0.000210082,0.000454892,0.000325873,0.0210857,0.002195302,0,0,0.002202622,0,0.000631673,0.004664029,0,0.000131129,0,0.000143316,0,0,0.003310796,0.00024646,0.075666012,0.026289787,0.00530036,0.003470937,0.001476598,0.0001586,0,0.015191766,0.459518728,0.144968466,0,0,29.60877419,19.36293411,30.22994614
Bitoujiao_5m_20210610,Bitoujiao,5m,Bitoujiao_5m_20210610,North,25.12486067,121.918353,0,0.340923736,0,0,0,0,0.000309798,0.001168595,0.001657474,0,0,0,0.00011873,0.000791085,0.000577412,0,0.013686932,0,0,0,5.82815714157616e-05,0.010264138,9.6277521958545e-06,0.17482252,0.004617702,0.023626482,0.006552207,0.001144672,0.001066284,0,0.001328154,0.284671567,0.024522997,0.035543602,0.072538002,29.60877419,19.36293411,30.22994614
Bitoujiao_5m_20220726,Bitoujiao,5m,Bitoujiao_5m_20220726,North,25.12486067,121.918353,0,0.312714554,0,0,0.000935351,0.000196663,0.000106414,6.08313142857143e-05,0.001743631,0,0,0.002763359,0,0.002002666,0.001293384,0,0.001581824,0,0.004426183,0,1.0945816911539e-05,0.009726198,0.000854676,0.189360283,0.006295635,0.012203673,0.001751326,0.000185018,0.000802991,0.000551698,0.003800718,0.37846643,0.015922842,0.029107293,0.023135412,29.60877419,19.36293411,30.22994614
Chaikou_10m_20190404,Chaikou,10m,Chaikou_10m_20190404,Ludao,22.678681,121.480876,3.09599333023734e-05,0.19626297,0.000473649,0,0.000270767,0.003522533,0.003159561,0.030168895,0.005340117,0.001114128,0.000140022,0.012344008,0.005303129,0.008139047,0.005281936,0,0.000550508,0.000257259,0,0.000136484,0,0.008416647,0.000210649,0.198713255,0.009776053,0.005521949,0.003206064,9.26205464047294e-05,0.000869802,0.000872844,0.017545673,0.440611912,0.041555901,0.000110658,0,30.25894165,23.23961067,34.9747467
Chaikou_5m_20220627,Chaikou,5m,Chaikou_5m_20220627,Ludao,22.678681,121.480876,0,0.113381574,0,0.000198928,0.019063741,0.001306004,0.000299554,0.00016518,0,0,0,0.008712973,0.002499224,0.011493973,0.011680067,0,0.000483725,0,0.000283997,1.972833337279e-05,0.000741559,0.013920214,0.015283928,0.288383531,0.037775645,0.091851348,0.018772547,0,9.51418568574316e-05,0,0.096950328,0.232494845,0.033455158,0.00034373,0.000343357,30.25894165,23.23961067,34.9747467
Chaojing_5m_20190712,Chaojing,5m,Chaojing_5m_20190712,North,25.144472,121.8047313,0,0.36105108,0,0,0,0,0.006195287,0.005341817,0.006053882,0,0,0.000968759,0.003132016,0.000988645,0.0020611,0,0.000101998,0,0.000148392,0.000156703,0,0.008647915,0,0.169869646,0.006490956,0.006157675,0.008646101,0.000536167,5.46214685471086e-06,0,0.00456767,0.374492743,0.022015975,0.007654182,0.004715829,29.62391472,19.07783508,29.28829956
Chaojing_5m_20210618,Chaojing,5m,Chaojing_5m_20210618,North,25.144472,121.8047313,0,0.269995626,0,0,0.000548486,0,0.002739198,0.00067768,0,0,0,0,0,0.004398946,0,0,0.018729204,0,0,0,0.004382074,0.085866385,0,0.122030156,0.052503806,0.01653456,0.031332635,0.000204387,9.98098622685118e-05,0,0.004281839,0.328301704,0.026420058,0.006670646,0.024282801,29.62391472,19.07783508,29.28829956
Chaojing_5m_20220809,Chaojing,5m,Chaojing_5m_20220809,North,25.144472,121.8047313,0,0.236258334,0,0,0.000679765,0.000518962,0.000189486,0.000284198,0.001324967,0,0,0.001183439,0,0.003960473,0.0042189,0,0.01149288,0,0.004659055,0.000295772,0.001639043,0.039111856,0.001741346,0.145612932,0.032825099,0.017941381,0.022353569,8.17780951563171e-05,0.000248958,0.000589248,0.003332282,0.393324144,0.026135403,0.024220359,0.025776371,29.62391472,19.07783508,29.28829956
Dabaisha_10m_20170103,Dabaisha,10m,Dabaisha_10m_20170103,Ludao,22.63784767,121.4898957,0,0.084733578,8.48715481714022e-05,0.023355386,0.050127685,0.015500472,0.000654099,0.000111921,8.3723899712471e-05,0.005750894,0.009820019,0.220894861,0.175029094,0.00215173,0.006133034,0,0,0,0,0.000117272,0.000508686,0.015230695,0,0.083065627,0.003198427,0.007312447,0.035946084,0,0.000965338,0.003200352,0.003819306,0.233956033,0.018248363,0,0,30.2981739,23.32548714,35.13315582
Dabaisha_5m_20220701,Dabaisha,5m,Dabaisha_5m_20220701,Ludao,22.63784767,121.4898957,0,0.177587829,0,0,0.000712989,0.007064722,0,0.000640156,8.62884856902609e-05,0,0,0,0.001022258,0.021934373,0.000442499,0,0.006654138,0,2.92295809231514e-05,0,0.02140662,0.065169866,0,0.167083898,0.052984864,0.01058571,0.038007573,0,0.002078415,0.000101413,0.012346372,0.392427708,0.018460543,0.001168561,0.002003975,30.2981739,23.32548714,35.13315582
Dabaisha_5m_20230712,Dabaisha,5m,Dabaisha_5m_20230712,Ludao,22.63784767,121.4898957,0,0.140638236,0,0,0.016432082,0.002073826,0.000599688,7.72454192793553e-05,6.77590573461343e-05,0,0,0.000312301,0.000417967,0.009911983,0.000307488,6.00677364237041e-05,0.043578834,0,0,0,0.005989091,0.04631931,0.000182551,0.157515883,0.192575457,0.015363623,0.016574624,0,0.000161534,0,0.013563196,0.279394048,0.051460614,0.00417237,0.002250221,30.2981739,23.32548714,35.13315582
Dafu_10m_20200611,Dafu,10m,Dafu_10m_20200611,Xiaoliuqiu,22.328371,120.3714064,0,0.102602191,2.26009111325301e-05,0,0.000725059,0.003393408,0.011844282,0.003845707,0.000111733,0,0,8.11694343687592e-05,8.48898465345556e-05,0.00615832,0.000596439,0,0,0,0,0.002308282,0,0.000831098,0.000162101,0.098651476,0.012337778,0.006400785,0.001063414,0.000559377,0.000310358,0,0.005819323,0.659371105,0.082516896,0.00020221,0,30.63549423,22.31768417,40.19467163
Dafu_5m_20210903,Dafu,5m,Dafu_5m_20210903,Xiaoliuqiu,22.328371,120.3714064,0,0.188113598,0,0,0.000712452,4.52516771967052e-05,0.005815403,0.000126073,0.000816765,0,0,0,0,0.001127291,0,0,0.004302458,0,0,0,0,0.022252624,0,0.015104442,0.003625381,0.010398286,0.000308038,0,0.000146588,0,0.000344493,0.718297075,0.026689624,0.001366681,0.000407477,30.63549423,22.31768417,40.19467163
Dafu_5m_20230704,Dafu,5m,Dafu_5m_20230704,Xiaoliuqiu,22.328371,120.3714064,0,0.225785864,0,0,0.000637968,0,0.005258979,6.26020095374078e-05,0.000274327,0,0,0,0,5.48716380403664e-05,0,0,0.000196812,0,0,0.000111871,0.001336494,0.046826298,0,0.016938474,0.002398649,0.008382906,0.000912974,0,0,0,0.003661646,0.61806185,0.06601949,0.001222591,0.001855334,30.63549423,22.31768417,40.19467163
Dengta_5m_20220627,Dengta,5m,Dengta_5m_20220627,Ludao,22.677333,121.46185,0.000169156,0.131169857,0.000938784,0,0.000925112,0.000949034,4.85386023319396e-05,0.000973463,0.000436069,0,0,0.002163913,0.004020036,0.025934305,0.010274052,0,0.003008549,0.000245952,0,0,0.000404003,0.032975505,7.00939091876352e-05,0.162983955,0.004839281,0.014789012,0.031179397,0.000120224,0.006571397,1.18047710272422e-05,0.041250964,0.421651608,0.101288986,0.00060695,0,30.25894165,23.23961067,35.27151871
Dingbaisha_5m_20220409,Dingbaisha,5m,Dingbaisha_5m_20220409,Kenting,21.942043,120.709931,0,0.093895028,0,0,0.009613675,0.004157425,0.000941704,0.005336386,8.89252476190476e-05,0,0,0.003202364,0.000316699,0.015087976,0.000393227,0,0.006583546,0,0.000349396,0.000141773,0.002122549,0.102706455,7.26962762631725e-05,0.083224932,0.008649025,0.008639584,0.005869814,0,0,0,0.004138084,0.621852656,0.019909077,0.001600417,0.001106586,30.56768799,23.24245453,39.20464706
Dongchin_10m_20190801,Dongchin,10m,Dongchin_10m_20190801,Lanyu,22.058051,121.568943,0,0.112669751,0.000691461,3.5596038700623e-05,0.000317923,0.007808816,0.005459557,0.00821094,0.000754509,0,0,0.003036378,0.001269122,0.087873696,0.000948692,0,0.024723789,0.007987405,0,0.003150429,0.00010053,0.001877754,2.87588018500106e-05,0.076611309,0.000283206,0.026329851,0.010483924,6.14559230485155e-05,0.009473775,0.004936587,0.03043581,0.487635983,0.086771053,3.19382881081151e-05,0,30.17884827,23.69597626,34.65927505
Dongchin_5m_20220715,Dongchin,5m,Dongchin_5m_20220715,Lanyu,22.058051,121.568943,0,0.215856016,4.08987410817099e-05,0,0.012469782,0.001769058,0.00387647,0.000117448,0.00209539,0,0,0.007565364,2.26736748029462e-05,0.010330509,0.003234109,0,0.011816223,0,0.001946163,0,0.006127719,0.01388122,0.003424657,0.093885792,0.012102113,0.021731092,0.038727098,4.65451096926501e-05,0.003273546,0.000210471,0.005308245,0.484377399,0.042871277,0.002329612,0.00056311,30.17884827,23.69597626,34.65927505
Dongjiyu_5m_20210501,Dongjiyu,5m,Dongjiyu_5m_20210501,Penghu,23.25038,119.67429,0,0.085214893,0,0,0,7.7637182572489e-05,0.001286575,7.22837300733497e-05,8.8784537857149e-06,0,0,0.000119606,0,0.024630807,0,0,0.012892607,0,0,8.92153177563844e-05,0.003643544,0.016035792,0,0.073353882,0.053271852,0.028592773,0.122207497,0.000152039,0,0,0.001697959,0.543581023,0.02432084,0.002395212,0.006355083,29.99262619,19.9396534,38.49075317
Dongyuping_5m_20210504,Dongyuping,5m,Dongyuping_5m_20210504,Penghu,23.25962,119.51113,0,0.044986947,0,0,0,0,0,0,0,0,0,0,0,0.02445053,0,0,0.018437262,0,0,0,0.01732401,0.015768973,0,0.024466504,0.370642989,0.002608651,0.086688959,0.000159452,0,0,0.000164325,0.241464464,0.15067179,0.00044936,0.001715784,29.39041519,19.47366142,38.04005051
Duziping_10m_20200610,Duziping,10m,Duziping_10m_20200610,Xiaoliuqiu,22.3500085,120.3632715,0,0.095108672,6.37618762542381e-05,0,0,0.004410449,0.004997942,0.002990906,0.000766224,0.000186257,0,0.001164097,0.000674755,0.003308063,0.001106643,0,0,0,0,0.017406064,4.61978952842931e-05,0.05158839,0.000438187,0.110606979,0.005328486,0.023973712,0.003015035,5.14134190990325e-05,0,0.000187241,0.006989617,0.589743628,0.075165307,0.000122458,0.000559516,30.60363007,22.28019142,40.31570053
Duziping_5m_20210901,Duziping,5m,Duziping_5m_20210901,Xiaoliuqiu,22.3500085,120.3632715,0,0.144793416,0,0,0,0,0.000872673,0.000260596,0.001802432,0,0,0.000110002,0,0.001050275,0.000595806,0,0.006301223,0,0.000543238,0.000810692,0.00014185,0.004631195,0,0.022082333,0.001949126,0.031003194,0.000834765,0,0.001469945,0,0.00069846,0.717669537,0.054664371,0.003740182,0.003974688,30.60363007,22.28019142,40.31570053
East_Inner_Atoll_5m_20200508,East_Inner_Atoll,5m,East_Inner_Atoll_5m_20200508,Dongsha,20.6921,116.866417,0,0.106762608,8.43094639483643e-05,0,0.001299789,0.013986094,0,0.003177313,2.12394008224178e-05,0,0,0.004607527,0,0.02781166,0.004650696,0,0.002288923,0.000179848,0.000411208,0.000224754,0.001190848,0.001707551,0.007704324,0.160281211,0.018899422,0.196388391,0.001935844,0.000121393,0.000852185,0,0.043898168,0.296447748,0.100164915,0.00136714,0.00353489,30.52989006,21.76390076,37.45334244
East_Outer_Atoll_10m_20200510,East_Outer_Atoll,10m,East_Outer_Atoll_10m_20200510,Dongsha,20.700267,116.923133,0.000193671,0.229893361,0.004532136,0.000135155,0.005318269,0.000382447,0.022855369,0.006025641,0.001837539,0,0,0.004710725,0.003200879,0.010638841,0.001204352,0,0.000299904,0.000473548,0,0,0,0.00466803,0,0.060763799,0.001637082,0.004699716,0.000761162,0.000280242,8.26204837866776e-05,0,0.039711389,0.559596024,0.036098096,0,0,30.51915932,21.81235123,37.30706024
Fenniaolin_5m_20200814,Fenniaolin*,5m,Fenniaolin_5m_20200814,East,24.49756,121.855,0,0.093113551,0.000874787,0,0.000294312,0.022883131,0.003184621,0.036950283,3.57198096824034e-05,0,0,0.002007786,0.005282363,0.055834942,0.001250045,0,0.011428936,0.002365019,6.28901774359621e-05,0,0.000368682,0.014319695,0,0.025853942,0.009276965,0.012778499,0.001997102,0.004650173,0.000303231,7.89462358591689e-05,0.001447877,0.57001814,0.122665244,0.000248018,0.000425097,29.59700966,22.24241066,29.76206017
Fenniaolin_5m_20210825,Fenniaolin*,5m,Fenniaolin_5m_20210825,East,24.49756,121.855,0,0.087108726,0,0,0.000863031,0.00710392,0.000968912,0,0,0,0,0.000151494,0,0.030764743,0.000317168,0,0.270018571,0,7.65626776278179e-05,9.64936759009952e-05,0.000248484,0.00573604,0,0.077932553,0.026289389,0.028926912,0.005307158,0.000108908,0.001989793,0,0.000269172,0.427506781,0.023052341,0.004282068,0.000880778,29.59700966,22.24241066,29.76206017
Fenniaolin_5m_20220819,Fenniaolin*,5m,Fenniaolin_5m_20220819,East,24.49756,121.855,0,0.163296727,0.000343253,0,0.004222021,0.011105992,9.51081963267173e-05,0.000288547,0.001772649,0,0.00014011,0.005967648,0.000377729,0.0427727,0.02392036,0,0.073237335,0.000114718,0.007830478,7.34803546942177e-05,0,0.002776138,0.002270159,0.143724648,0.023345907,0.057601668,0.000831813,0,0.003014595,0.001532637,0.005890244,0.335923524,0.081114788,0.005563286,0.000851737,29.59700966,22.24241066,29.76206017
Gongguan_1_5m_20220629,Gongguan_1,5m,Gongguan_1_5m_20220629,Ludao,22.678283,121.492267,0.000234857,0.133788939,0,0,0.013360905,0.007433689,0.000219095,0.003193399,0.000102507,0,0,0.0002325,0.001159732,0.014225461,0.001320701,0,0.020489799,0,0,0,0.002054222,0.012264516,0,0.135362385,0.038591424,0.024253621,0.046634031,4.48813714734528e-05,0.000400264,0,0.017200851,0.479790881,0.046007826,0.001567269,6.62451428571428e-05,30.25894165,23.23961067,34.9747467
Gongguan_10m_20190403,Gongguan,10m,Gongguan_10m_20190403,Ludao,22.676904,121.494466,0,0.175798216,0.000725783,0,0.00016102,0.007707701,0.000312169,0.007303749,0.000645413,0.000317434,0,0.005737047,0.008318851,0.038619712,0.016237487,0,0.001636891,0.000143191,0,9.87750815591093e-05,0.001071525,0.029290841,0.001355033,0.189232763,0.001364124,0.041433943,0.024541607,0.000640199,0.00283429,0.000793406,0.024642752,0.375137426,0.043197638,0.000233474,0.000467538,30.25894165,23.23961067,34.9747467
Gongguan_2_5m_20220629,Gongguan_2,5m,Gongguan_2_5m_20220629,Ludao,22.6778,121.4954,0,0.109389841,0,0,0.025862723,0.004788182,0,0.000460771,4.23834095138452e-05,0,0,0.00046539,0.002409531,0.022362927,0.001162317,0,0.034304802,6.45467209383921e-05,0,0,0.014976137,0.019698336,1.06721619154341e-05,0.226512844,0.044392209,0.045537126,0.033029975,6.53280857796138e-05,0.000236468,0,0.02490343,0.346817148,0.037078482,0.003786001,0.001642429,30.25894165,23.23961067,34.9747467
Gongguan_5m_20230710,Gongguan,5m,Gongguan_5m_20230710,Ludao,22.676904,121.494466,0,0.232844629,0,0,0.022728212,0.020291835,0.000457576,0.000420062,0,0,0,4.28430952446927e-05,0,0.045054986,0.000220794,0,0.035838659,0.000102315,0,8.96335662755108e-05,0.005225703,0.030189085,0.000217941,0.148847972,0.017132841,0.032879097,0.041583392,0,0.007065846,0,0.014228505,0.290909591,0.043412753,0.004313066,0.005902664,30.25894165,23.23961067,34.9747467
Guian_Harbor_10m_20190823,Guian_Harbor,10m,Guian_Harbor_10m_20190823,North,25.023315,121.962451,0,0.396228778,9.47149286418767e-05,0,0.000193407,0,0.013422844,0.00784649,9.54726666666667e-06,0,0,0.000735896,0,0.009814695,0.00046143,0,0.000587675,0.000116638,0,0,0,0.011405971,0,0.110613918,0.006676119,0.014541349,0.003108787,0.000554166,0.001215226,3.9036944254124e-05,0.041854756,0.266618878,0.111799679,0.000506005,0.001553992,29.49176407,19.9825592,30.02545547
Guian_Harbor_5m_20210713,Guian_Harbor,5m,Guian_Harbor_5m_20210713,North,25.023315,121.962451,0,0.235268705,0,0,0,0,0.01816558,0.001262964,0.000248666,0,0,0,0,0.004266362,0,0,0.007295246,0,0,0,0,0.006749432,0,0.017461185,0.002619739,0.003236495,0.001414897,0,0.000740137,0,0.002187267,0.656481158,0.041208978,0.000682106,0.000711085,29.49176407,19.9825592,30.02545547
Guishandao_1_10m_20200714,Guishandao_1,10m,Guishandao_1_10m_20200714,North,24.84246,121.937095,0,0.102936418,0.017354786,0,0,0.000597515,0.000855,0.010951709,0.000702859,0,0,0.006902512,0.00902384,0.021298715,0.003187966,0,0.000925322,0.000992484,0,0.000235541,3.17268149736448e-05,0.011420767,0,0.036811101,0.000539628,0.003983917,0.002718441,0.000741168,0.004072532,0.00159648,0.008663036,0.668231476,0.08494083,2.42025047619048e-05,0.000260027,29.38819695,20.65202713,31.10346603
Guishandao_1_5m_20210923,Guishandao_1,5m,Guishandao_1_5m_20210923,North,24.84246,121.937095,0,0.17645686,0,0,0.000818698,0.004498,0.000281514,0.000252368,0.000244649,0,0,3.62152005055354e-05,0,0.005699967,7.14056691729816e-05,0,0.021298178,0,3.30475331250737e-05,0,0.000847966,0.019167463,0,0.050979115,0.014416639,0.029710386,0.010847843,3.51526095589621e-05,0.001847794,0,0.005978727,0.630112778,0.024358075,0.000647903,0.001359257,29.38819695,20.65202713,31.10346603
Guishandao_2_10m_20200714,Guishandao_2,10m,Guishandao_2_10m_20200714,North,24.84632,121.944225,0,0.106414732,0.049141106,0,0,0.002590437,0.00010265,0.024662936,4.25477028925683e-05,0,0,0.001637789,0.000360112,0.020257402,0.000870395,0,0.007629377,0.000115522,5.68130039807967e-05,0.000175049,7.56441123479195e-05,0.013622646,0,0.059719938,0.000432142,0.023061724,0.010195253,0.001577076,0.000757035,7.88823839882553e-05,0.051524232,0.4592494,0.16564916,0,0,29.38819695,20.65202713,31.41858673
Guishandao_2_5m_20210923,Guishandao_2,5m,Guishandao_2_5m_20210923,North,24.84632,121.944225,0,0.280995905,0,0,0.003200155,0,0.001651015,0.009760697,0.001700376,0,0,0.000113058,0,0.112274958,0,0,0.080349913,0,0,0.000491599,0.007529832,0.035370924,0,0.01985148,0.003586407,0.004340299,0.00572727,0.000224541,0.002155979,0,0.003934262,0.392356984,0.03384563,0.000499254,3.94646476190476e-05,29.38819695,20.65202713,31.41858673
Guiwan_10m_20170103,Guiwan,10m,Guiwan_10m_20170103,Ludao,22.64109667,121.480459,0,0.074279427,0,0.005693682,0.002943476,0.008690125,0,5.44321109656755e-05,0,5.43951306925253e-05,0.001199832,0.181430189,0.161877016,1.23089205942734e-05,0.008796849,0,0.000354656,0.000531055,0,0,0.01860313,0.042030674,0.000560396,0.125919366,0.00522433,0.013870638,0.130138672,0,6.76808958985093e-05,0.000163494,0.005148427,0.205232614,0.007123137,0,0,30.2981739,23.32548714,35.13315582
Guiwan_5m_20220628,Guiwan,5m,Guiwan_5m_20220628,Ludao,22.64109667,121.480459,4.03684571428571e-05,0.123535485,7.56998400451338e-05,0,0,0.000304404,0,0.000546197,0.00030837,0,0,0.005836243,0.006064157,0.00566655,0.008408266,0,0.000426109,0.000382736,0.00065183,4.71910206418788e-05,0.000908588,0.02291801,0.000827139,0.237268246,0.033010162,0.024632094,0.015772692,8.53112865198055e-05,0.001659047,0.000249119,0.048969046,0.393589694,0.066495125,0.000722815,0.000599305,30.2981739,23.32548714,35.13315582
Guiwan_5m_20230713,Guiwan,5m,Guiwan_5m_20230713,Ludao,22.64109667,121.480459,0,0.14272096,0,0,0.000269982,0.00136335,0.000198169,0,0,0,0,0.000137988,0.000527862,0.012624638,1.54032571428571e-05,0,0.015980246,0,0,0,0.001913032,0.012850564,8.81096287476478e-05,0.206905242,0.132234208,0.040019042,0.011223674,0.00032871,0.000681363,0,0.01331577,0.335405042,0.061435816,0.005071043,0.004689785,30.2981739,23.32548714,35.13315582
Gupoyu_5m_20200828,Gupoyu,5m,Gupoyu_5m_20200828,Penghu,23.71468,119.558475,0,0.140685497,8.4095333249238e-06,0,0.000303124,0.000982267,0.000220856,0.000504905,6.46402488582711e-06,0,0,0.005890817,0,0.002909024,0.000494423,0,0,0,0,0,0.043487975,0.018519959,0.000261211,0.02248369,0.000890093,0.010686489,0.028782196,0.014560356,7.75693999224306e-06,0,0.006841469,0.585435269,0.116037749,0,0,28.9536953,18.21903229,36.45840454
Gupoyu_5m_20210510,Gupoyu,5m,Gupoyu_5m_20210510,Penghu,23.71468,119.558475,0,0.137205977,0,0,0,0,0.002860696,0.012709578,0,0,0,0,0,0.005136781,0,0,0.004865753,0,0,0,0.076326757,0.012338234,0,0.015303574,0.004169667,0.014440958,0.039633804,0.001520179,0,0,0.002409196,0.214866064,0.456093628,0.000119154,0,28.9536953,18.21903229,36.45840454
Haishenping_5m_20220818,Haishenping,5m,Haishenping_5m_20220818,Ludao,22.6585,121.507583,0,0.195712606,0,0.000101909,0.067013222,0.002269952,0.000522372,0.000135387,0,0,0,0.002670714,0.004196923,0.04105234,0.001210902,0.000270669,0.010754931,0,0,0.000648947,0.026915029,0.044028925,0.00080975,0.155105387,0.058477543,0.016851461,0.138358167,0.00039417,0,0,0.008721173,0.209213993,0.012142772,0.001875126,0.000545632,30.25894165,23.23961067,35.13315582
Hepingdao_5m_20210727,Hepingdao,5m,Hepingdao_5m_20210727,North,25.1621135,121.7689535,0,0.4067725,0,0,0.000102821,0,0.014720385,0.000751469,0.002326761,0,0,0,0,0.000601306,0,0,0.008739037,0,0,0,0.000437032,0.002679826,0,0.120540191,0.003517138,0.003009676,0.002809025,0,0.002954919,0,0.001505352,0.397988975,0.019359482,0.005658432,0.005525674,29.74578094,18.79842949,29.88887596
Hongchaikeng_10m_20160518,Hongchaikeng,10m,Hongchaikeng_10m_20160518,Kenting,21.96504167,120.7105813,0,0.095497457,0.002491145,0,0,0.001470965,0.003883847,0.002832388,0,0,0,0.005647879,0.001900119,0.012896013,0.002070497,0,0.001052403,0.00014941,0,0.001809418,0.000983642,0.029129612,0,0.116934481,0.005344583,0.017714484,0.015619962,0.000699266,0.002118389,0.000835646,0.042061869,0.484335031,0.152521492,0,0,30.56768799,23.24245453,39.06655502
Hongchaikeng_5m_20220406,Hongchaikeng,5m,Hongchaikeng_5m_20220406,Kenting,21.96504167,120.7105813,0.000190786,0.115186713,0,0,0.015786738,0.001085086,0.002577479,0.008058194,0.000196888,0,0,0.001181186,0,0.005886303,0.000475221,0,0.012297714,0,0,0.000142441,0.000282267,0.055519395,0,0.072877945,0.00811827,0.01805805,0.00462022,0.000286895,0.000553626,0.000432146,0.004365688,0.652148491,0.018103402,0.001464833,0.000104023,30.56768799,23.24245453,39.06655502
Houbihu_5m_20220410,Houbihu,5m,Houbihu_5m_20220410,Kenting,21.942488,120.752944,0,0.07580728,0,0,0.022680886,0.001028255,0.000202514,0.000370018,0,0,0,0,0.00034744,0.023605663,0.000375933,0,0.025138851,0,0,0.00019084,0.009641169,0.010848363,0,0.068573667,0.359724043,0.012986368,0.021379714,5.21153714285714e-05,0.000356676,0,0.003220253,0.308447468,0.054184399,0.000192148,0.000645938,30.45998764,23.24942207,38.59011841
Houshi_10m_20200611,Houshi,10m,Houshi_10m_20200611,Xiaoliuqiu,22.3247995,120.3666185,0,0.128946255,0,3.41614226295923e-05,0.000942596,0.00565852,0.017158617,0.036029281,0.002770264,0,0,0.001529647,0.000106542,0.003613315,0.004121653,0,8.713192363526e-05,0.000608932,0,0.009017629,0,0.004143514,0,0.010581149,0.000520702,0.000427334,0.001430173,0.000839373,0.000763514,0,0.006738908,0.645857677,0.118073112,0,0,30.63549423,22.31768417,40.42216873
Houshi_5m_20210902,Houshi,5m,Houshi_5m_20210902,Xiaoliuqiu,22.3247995,120.3666185,0,0.128314361,0,0,0,5.62524667229191e-05,0.000894112,0.000326974,0.000671315,0,0,0.00023928,0,0.002230401,7.90704928145295e-06,0,0.00907907,0,0,0,3.08868285405417e-05,0.004439573,0,0.055625862,0.017993494,0.036748154,0.000659683,0,0,0,0.000269288,0.692390467,0.04594315,0.001857305,0.002222465,30.63549423,22.31768417,40.42216873
Huaientang_5m_20210508,Huaientang,5m,Huaientang_5m_20210508,Penghu,23.53386,119.61486,0,0.072894395,0,0,0,0.000154188,0.000622032,2.14928269886546e-05,0.00011335,0,0,0,0,0.000470566,0,0,0.002219381,0,0,0,0.419204371,0.045010242,0,0.047404424,0.133597446,0.012140444,0.050337908,0.000203748,0.000185912,0,0.000130345,0.19546637,0.017807687,0.00157928,0.000436416,29.29231071,18.92474365,36.18424225
Huaping_5m_20210816,Huaping,5m,Huaping_5m_20210816,North,25.42456,121.94495,0,0.495188786,0,0,0,0.000341183,0,2.58258015720022e-05,0.00010122,0,0,0,0,0,0,0,0.000224555,0,0,0,0.000729231,0.001123262,0,0.006245853,0.003016761,0.00200567,0.022271311,0,0.00207486,0.000132985,0.006216853,0.441933288,0.01745188,0.000916476,0,29.78151131,18.71215057,32.45289993
Huapingyan_10m_20200612,Huapingyan,10m,Huapingyan_10m_20200612,Xiaoliuqiu,22.356052,120.3805135,0,0.103561993,0.000125572,1.71978952380952e-05,0.000407752,0.008452948,0.001761695,0.001265627,0.000117307,0,0,0.000898182,0,0.005567197,0.000186507,0,0,0,0,0.015768977,0,0.003475838,0,0.039458961,0.001155866,0.003139195,0.001969363,0,0.000451751,1.60729954133576e-05,0.010236322,0.710378855,0.091396596,0,0.000190226,30.60363007,22.28019142,40.00014877
Huapingyan_5m_20210902,Huapingyan,5m,Huapingyan_5m_20210902,Xiaoliuqiu,22.356052,120.3805135,0.000534376,0.224295619,5.00888476190476e-05,0,0.001403772,0.004256236,0.001599721,0.002715728,0.000341042,0,0,0.00047318,0,0.002633074,0.000393413,0,0,0,0.000248681,0.011312465,3.63821870155719e-05,0.009271172,0,0.026989758,0.003302466,0.002850576,0.000971416,0.000138567,0.000857842,0.000747084,0.007070512,0.600760863,0.096260256,0.000330264,0.000155447,30.60363007,22.28019142,40.00014877
Huayu_5m_20210502,Huayu,5m,Huayu_5m_20210502,Penghu,23.4047,119.31565,0,0.116416156,0,0,0,0,0.001439757,0.000385316,8.23766152925003e-05,0,0,0,0,0.015546842,0,0,0.00708391,0,0,0,0.000511827,0.004505772,0,0.168010578,0.02112368,0.014244023,0.017835002,0.000186965,0,0,0.000912214,0.591756841,0.038811979,0.001146763,0,28.59733009,18.42508888,37.2495842
Hujingyu_North_5m_20200825,Hujingyu_North,5m,Hujingyu_North_5m_20200825,Penghu,23.49275,119.5205,0,0.079760608,0.000249272,0,0,0.003662724,0.00016048,0.000126838,0,0,0,0.00153795,0,0.026512143,0.000848865,0,0.000688624,0.000941866,0,0.001264426,0.001250388,0.061902775,0.001500758,0.1475166,0.012759771,0.01119457,0.019017992,3.57185807679832e-05,6.6929333266404e-05,0.000374968,0.004048843,0.431465302,0.14309762,0.005247887,0.04476608,28.95958328,18.91871071,37.22371674
Hujingyu_North_5m_20210508,Hujingyu_North,5m,Hujingyu_North_5m_20210508,Penghu,23.49275,119.5205,0,0.086330292,0,0,0,0.000233109,4.17740190669204e-05,3.62160036364484e-05,0,0,0,0,0,0.00888777,0.000292836,0.000142713,0.009292718,0,0,0.004519759,0.005962447,0.149780332,0,0.053742135,0.110715865,0.007829763,0.016149942,0,0.00098638,0,0.003186307,0.393735686,0.144758568,0.001505192,0.001870199,28.95958328,18.91871071,37.22371674
Hujingyu_West_5m_20200825,Hujingyu_West,5m,Hujingyu_West_5m_20200825,Penghu,23.49217,119.51086,0,0.039829721,0,0,0,8.64794571767289e-05,0,0.000343077,0,0,0,0.001335769,0,0.00299607,0.001096736,0,0,0,0,0.000815218,8.74706671564204e-05,0.017483172,0.000103768,0.055681427,0.005306075,0.006478427,0.006830284,0.000545583,0.000555762,0,0.00035425,0.318332119,0.541499383,0.000141339,9.78668380952381e-05,28.73525429,18.73848915,37.22371674
Hungchai_5m_20220406,Hungchai,5m,Hungchai_5m_20220406,Kenting,21.976484,120.714387,2.37526420291128e-05,0.092817716,0,0,0.000551975,0.000815994,0.001573863,0.004076301,0.000280043,0,0,0.001771438,0,0.003669284,0.001293019,0,0.012909238,0,0.000174216,0.000113299,0.000308832,0.017485409,0,0.108440523,0.029787953,0.023267752,0.010206944,0.000143461,0,0,0.008678116,0.657660404,0.021940329,0.001695301,0.00031484,30.58568954,23.21359634,39.06655502
Jialeshui_5m_20220411,Jialeshui,5m,Jialeshui_5m_20220411,Kenting,21.99726,120.873188,0,0.221544782,0,0,0.04836381,0.005297967,0.006093417,0.001324317,0.00092036,0,0,0.014871238,5.99058746985084e-05,0.025500226,0.001256268,0,0.0541454,0,0,0,0.011303993,0.049561015,0,0.066447763,0.023492818,0.016740117,0.048921652,0.000496011,4.26447499666965e-05,0,0.007944756,0.380494905,0.013352838,0.001648232,0.000175565,30.26713181,23.22740364,37.06752396
Jiamuziwan_5m_20190821,Jiamuziwan,5m,Jiamuziwan_5m_20190821,East,22.8628765,121.2088495,0,0.237490092,3.49024759410523e-05,6.71797933857018e-06,0.062719385,0.075008394,0.012207317,0.003858123,0.001040531,0,0,0.022360501,6.59670475530806e-06,0.054846302,0.001156161,0,0.000610982,1.52526820368474e-05,0.000222621,0.000280996,0.000388775,0.011781066,0.000105588,0.135332173,0.011682808,0.011348146,0.002120288,0.000944434,4.44242637006363e-05,0,0.012376931,0.277992184,0.063498368,0.000484521,3.54164438125082e-05,29.94989395,23.00416756,34.41840744
Jiamuziwan_5m_20210828,Jiamuziwan,5m,Jiamuziwan_5m_20210828,East,22.8628765,121.2088495,0,0.117873672,0,0,0.031987937,0.002817887,0.003163332,0.001811738,0.000871112,0,0,0.012390907,0,0.025369362,0.001358962,0,0.08324231,0,0,0,0.000465433,0.020280827,3.26730923207546e-05,0.132886654,0.039248889,0.019231553,0.009079284,0.00078498,0.000114957,0,0.000238131,0.425861345,0.060017845,0.005475591,0.00539462,29.94989395,23.00416756,34.41840744
Jiamuziwan_5m_20220817,Jiamuziwan,5m,Jiamuziwan_5m_20220817,East,22.8628765,121.2088495,0,0.141861035,0,0,0.027251997,0.013651608,0.000217731,0.000690608,0.009006611,0,0,0.040093437,0.000447975,0.031218559,0.027311328,0,0.013201688,0,0.006249626,6.09682093578205e-05,0,0.003940324,0.009975596,0.212290051,0.046907666,0.028649553,0.012194976,0,0.000725268,0.000522801,0.001999138,0.320120756,0.026707375,0.017317076,0.007386248,29.94989395,23.00416756,34.41840744
Jihui_5m_20190819,Jihui,5m,Jihui_5m_20190819,East,23.11625633,121.3972063,0,0.072241445,0.001178208,5.51524992707092e-06,0.019125227,0.009778901,0.001552379,0.00536683,0.001047595,0,0,0.013468855,0.000352076,0.028130828,0.00248774,7.43628569941315e-06,0.001062999,0.001421518,0,0.000667007,0.00059991,0.012795366,0.000141713,0.124524369,0.006158017,0.080976725,0.009205829,0.002127236,5.45700761904762e-05,0,0.003380926,0.3741116,0.227203578,0.000122609,0.000702991,29.72655678,23.02256012,33.086483
Jihui_5m_20210827,Jihui,5m,Jihui_5m_20210827,East,23.11625633,121.3972063,0,0.104077594,0,0,0.033898161,0.001733718,0.000541443,6.9575061808831e-05,0.000506486,0,0,0.008259738,0,0.019975566,0.000757332,0,0.069470937,0,0,7.04993891073892e-05,0.00415707,0.021858219,0.000756447,0.116645109,0.060195644,0.072633932,0.02753409,8.72781761598355e-05,0.000328416,0,0.000708568,0.412000956,0.031113359,0.009870747,0.002749116,29.72655678,23.02256012,33.086483
Jihui_5m_20220816,Jihui,5m,Jihui_5m_20220816,East,23.11625633,121.3972063,0,0.124768367,0,0,0.066693148,0.007387841,0,9.48028903636162e-05,0.001733401,0,0.001552025,0.050542152,0.00049167,0.010347388,0.012451319,0,0.008935834,0,0.005111204,0.000268037,0.001055366,0.007567697,0.007223303,0.198842331,0.041167058,0.047628185,0.017519892,0,0.000556803,1.02296666768963e-05,0.000506007,0.336145773,0.047605014,0.002852194,0.000942956,29.72655678,23.02256012,33.086483
Jingyudong_5m_20200826,Jingyudong,5m,Jingyudong_5m_20200826,Penghu,23.65744,119.522125,0,0.109450853,0,0,0,4.92798554205388e-05,1.6596600841353e-05,0.000528524,0,0,0,0.00337773,0,0.003629589,0.003944553,0,0.001658297,0.000305036,0,0,0.000337439,0.004403507,0,0.077774906,0.000478503,0.021820028,0.009105937,6.51715378334264e-05,0.000628444,0,0.002261,0.549196245,0.210736335,8.04163043150804e-05,0.000151611,28.92212486,18.36055946,36.25774384
Jingyudong_5m_20210510,Jingyudong,5m,Jingyudong_5m_20210510,Penghu,23.65744,119.522125,0,0.231790824,0,0,0,0,0.001422119,0.0002114,0.000615859,0,0,0,0,0.008363591,0,0,0.012150401,0,0,0,0.002041256,0.035176533,0,0.133835452,0.008702315,0.017173338,0.035940821,0.000216451,0,0,0.00046737,0.492286041,0.012261527,0.005272086,0.002072618,28.92212486,18.36055946,36.25774384
Jiqi_5m_20200813,Jiqi,5m,Jiqi_5m_20200813,East,23.6940545,121.552531,0,0.106269769,8.52777590349847e-05,0,0,0.001420901,0.007785794,0.003245606,0.003827933,0,0,0.014103779,0,0.002762485,0.038953621,0,0,0,0,0.000243632,5.79366803029056e-05,0.008363055,0,0.083951013,0.002109087,0.009522504,0.000279914,0.00083036,0,0,0.00161355,0.671166596,0.041336265,0.000954219,0.001116703,29.64119339,23.1835804,31.96844292
Jiqi_5m_20210825,Jiqi,5m,Jiqi_5m_20210825,East,23.6940545,121.552531,0,0.255284564,0,0,0.00010664,0,0.006606751,0.002435581,0.002204444,0,0,0,0,0.002245118,2.76770881199361e-05,0,0.000926246,0,0,0,0.000261691,0.001151029,0,0.005806616,0.001694217,0.000227621,0.000438636,0.000311384,0.000197225,0,5.98245670662271e-05,0.687552627,0.031701948,0.000475848,0.000284313,29.64119339,23.1835804,31.96844292
Jiqi_5m_20220818,Jiqi,5m,Jiqi_5m_20220818,East,23.6940545,121.552531,0,0.209949973,0,0,0,8.69649903892255e-05,0.003953462,1.34594476325071e-05,0.025583367,0,0,0.000150961,0,0.002634678,0.027124668,0,0.002447298,0,0.007271001,0.000128377,0,0.001621667,0,0.049489265,0.025800703,0.02676302,0.00070324,0,0.00153872,0,0.002520484,0.542790175,0.067864765,0.001241507,0.000322243,29.64119339,23.1835804,31.96844292
Keelung_Island_10m_20170925,Keelung_Island,10m,Keelung_Island_10m_20170925,North,25.18979425,121.7825868,8.99565048518613e-05,0.195299924,0.000453386,0,0,0,0.010468929,0.007596893,0.002112287,0,0,0.001012494,0,0.002211943,0.002808147,0,0,0,0,0.001070541,0.000102161,0.004216868,0,0.176585949,0.000947553,0.019643083,0.001620534,0.005703128,0.02015377,0.000661566,0.004222352,0.442121453,0.088753204,0.00193912,0.010204758,29.74578094,18.79842949,29.88887596
Keelung_Island_5m_20210727,Keelung_Island,5m,Keelung_Island_5m_20210727,North,25.18979425,121.7825868,0,0.186757096,0,0,0,8.15516384201157e-05,0.000970053,0.000487929,0.000279537,0,0,0,0,0.006843167,0,0,0.014893794,0,4.23924952380952e-05,0,0.038290322,0.054182839,0,0.152739668,0.028138468,0.022413062,0.063356768,0,0.001105588,0,0.003141197,0.363764854,0.030445694,0.007846957,0.024219063,29.74578094,18.79842949,29.88887596
Keelungyu_5m_20200827,Keelungyu,5m,Keelungyu_5m_20200827,Penghu,23.5424,119.53077,0,0.051439435,0.000133212,0,0,0.000778043,0.000225438,0,0,0,0,0.002304692,0,0.018333641,0.00129889,0,1.39967020104031e-05,0,0,0.001017612,0.02051079,0.039551642,0.000521913,0.101900196,0.013180775,0.013409837,0.035254254,0.000774623,0.000328634,0,0.001494882,0.341803291,0.354750579,0.000621574,0.000352049,28.87810326,18.69984818,36.87475204
Keelungyu_5m_20210507,Keelungyu,5m,Keelungyu_5m_20210507,Penghu,23.5424,119.53077,0,0.056356261,0,0,0,0.000134126,0.000357382,0,0,0,0,0,0,0.011361286,0,0,0.012964252,0,4.77040225140047e-05,0.00063052,0.061419352,0.017055141,0,0.039543031,0.15715823,0.02089567,0.007264666,2.25475592560162e-05,0.000349315,0,0.001446074,0.435743412,0.177173076,7.79563922992182e-05,0,28.87810326,18.69984818,36.87475204
Kongziyan_5m_20220817,Kongziyan,5m,Kongziyan_5m_20220817,Ludao,22.6507,121.50345,0,0.147718697,0,0,0.017297089,0.0044421,7.27621178265679e-05,0,0,0,0,0,0.000266005,0.036625651,0.000190047,0,0.01243331,0,0,0,0.012928254,0.024244135,0.000195772,0.24372942,0.046323824,0.038060476,0.073110791,1.20401619047619e-05,9.13881904761905e-06,0,0.030998659,0.277233159,0.032488397,0.00050085,0.001119422,30.25894165,23.23961067,35.13315582
Landong_10m_20190729,Landong,10m,Landong_10m_20190729,Lanyu,22.056424,121.5070875,0,0.101190568,0,0,0,0.002688718,6.26344546851993e-05,9.01920260652037e-05,3.74102533727778e-05,0,0.000132396,0.003788786,0.001549337,0.002304211,0.00847574,0,0.000327686,0,0.00022492,0.000386942,0.000170773,0.043834892,0.011331287,0.11838782,0.00042504,0.008404651,0.008235375,0,0.000636,0.000437747,0.059114207,0.498521036,0.127733015,0.001386153,0.000122463,30.22652626,23.69605446,35.92948914
Landong_5m_20220713,Landong,5m,Landong_5m_20220713,Lanyu,22.056424,121.5070875,0,0.222301437,0,0,9.78146476190476e-05,0.001863178,0.000238103,0,0,0,0,0,9.75119620022739e-05,0.006030203,0.001409866,0,0.004851938,0,0,0,0.000546947,0.120642271,0.000517639,0.035606806,0.003683178,0.013823735,0.006448609,0,0.000429225,0,0.020569131,0.466748398,0.092001832,0.001140806,0.00095137,30.22652626,23.69605446,35.92948914
Laurenyan_10m_20190730,Laurenyan,10m,Laurenyan_10m_20190730,Lanyu,22.0028625,121.573058,0,0.110800838,0,0,0,0.001150537,0,0,2.16736952164215e-05,0,0.000221279,0.017298216,0.005209019,0.004615015,0.005140941,0,0.000472642,0,0.000155326,0.000224453,0,0.033340162,0.001443836,0.180929566,0.001868103,0.00370944,0.009272402,0,0.00313167,0.000706176,0.063622477,0.523855966,0.03050749,0.001865468,0.000437304,30.17901611,23.79766655,35.54141617
Laurenyan_5m_20220712,Laurenyan,5m,Laurenyan_5m_20220712,Lanyu,22.0028625,121.573058,0,0.226323044,0,0,0.010315071,0.007175385,2.07369046129234e-05,0,0.00033786,0,0,0.000888175,0.000257012,0.006828342,0.000584873,0,0.006666169,0,0.000394059,0,0.002854954,0.039645177,4.18083237677155e-05,0.155149304,0.00904404,0.015809793,0.03004231,0,0.002630887,0.00018708,0.010874325,0.445364183,0.026438121,0.000936275,0.001191014,30.17901611,23.79766655,35.54141617
Leidashih_5m_20220407,Leidashih,5m,Leidashih_5m_20220407,Kenting,21.929179,120.744357,0,0.172147851,0,0,0.067880203,0.004489342,0.001605068,0.001097764,0.000531064,0,0,0.001467446,0,0.053039902,0.000580496,0,0.029895659,0,0,0,0.002266556,0.046688054,0.001136022,0.125805634,0.046665503,0.014467568,0.029298864,0.000562551,0,0,0.005198,0.382175391,0.011493216,0.000698231,0.000809616,30.45998764,23.24942207,38.59011841
Longdong_5m_20190524,Longdong,5m,Longdong_5m_20190524,North,25.11328133,121.919588,0.000476841,0.298805247,1.99686722721966e-05,0,0,6.18814761904762e-05,0.070531514,0.088725585,0.072200033,0,0,0.009370083,0.001363143,0.00420739,0.005177732,0,0.001174479,0,0.001769306,0.002436395,3.70778602491288e-05,0.019141652,0,0.043209332,0.006849144,0.004828815,0.002688794,0.006477598,3.44175307648098e-05,0.00110475,0.004340425,0.32742588,0.017882761,0.004499097,0.005160656,29.52860451,19.56199265,29.51881599
Longdong_5m_20210628,Longdong,5m,Longdong_5m_20210628,North,25.11328133,121.919588,0,0.432270141,0,0,0.000401214,0.004042557,0.031257979,0.003991796,3.12368630377354e-05,0,0,2.68172380416036e-05,0,0.003953989,0.000628717,0,0.015794509,0,0,0,0.000608765,0.014650576,0,0.027279139,0.004734051,0.004957824,0.003376796,0.000170469,0,0,0.003894131,0.391756748,0.030313697,0.007845609,0.018013239,29.52860451,19.56199265,29.51881599
Longdong_5m_20220810,Longdong,5m,Longdong_5m_20220810,North,25.11328133,121.919588,1.87835904574069e-05,0.270705367,2.91170476190476e-05,0,0.000464073,0.000573028,0.000187492,0.000195604,0.004524043,0,0,0.004262457,0,0.006741659,0.00593165,0,0.016843009,0,0.015019222,0.001169719,0,0.006952645,0.000663492,0.10285551,0.011700198,0.018954736,0.000727604,0,0.001089922,4.76779713808935e-05,0.004814435,0.481348866,0.021400363,0.014136351,0.008642977,29.52860451,19.56199265,29.51881599
Longkeng_10m_20160519,Longkeng,10m,Longkeng_10m_20160519,Kenting,21.905567,120.8632093,0,0.207341443,0.020961517,0,0.000161282,0.004009908,0.014054066,0.006405796,0.001371166,0,0,0.01395651,0.003912501,0.056493661,0.001584894,0,0.02232322,0.003207655,0,3.73045809896855e-05,7.10303111061266e-05,0.009637818,2.26867333106466e-05,0.087956108,0.000932966,0.008355076,0.001467186,0.00080671,0.000317597,0.00061196,0.031647107,0.480133052,0.021850238,4.40547190809986e-05,0.000325488,30.39800072,23.32444763,38.73398209
Longkeng_5m_20220411,Longkeng,5m,Longkeng_5m_20220411,Kenting,21.905567,120.8632093,0,0.224338579,0,0,0.006244015,0.005164686,0.004726897,0.001562022,0.002819554,0,0,0.016774004,0.000169642,0.062129284,0.003043975,0,0.038947739,0,0.000567582,0,0.000866198,0.05246629,0,0.102481628,0.013348706,0.007810162,0.013937576,0.000209491,0,0,0.006082144,0.416719311,0.012315922,0.005569189,0.001705403,30.39800072,23.32444763,38.73398209
Longxiadong_10m_20200611,Longxiadong,10m,Longxiadong_10m_20200611,Xiaoliuqiu,22.3445686,120.3892124,0,0.082053797,0.000575524,0,0,0.004663594,0.007835636,0.012111159,0.000212786,0,0,0.000628299,0,0.022310824,0.00040787,0,0.000104068,0.000531663,0,0.007448551,0,0.003073041,4.81413502238179e-05,0.042226778,0.003055696,0.007329017,0.001411286,0.000312567,0.000180684,0,0.003908358,0.705376446,0.094194212,0,0,30.60363007,22.28019142,40.00014877
Longxiadong_5m_20210903,Longxiadong,5m,Longxiadong_5m_20210903,Xiaoliuqiu,22.3445686,120.3892124,0,0.202215186,0,0,0,0,0.003584179,0,0.000156513,0,0,0,0,0.002368131,0,0,0.001830655,0,0,0,0,0.000898251,0,0.010384345,0.000437385,0.001003939,4.59764818040812e-05,0,0.000161181,0,0.000238638,0.754185228,0.022313602,0.000176791,0,30.60363007,22.28019142,40.00014877
Longxiadong_5m_20230630,Longxiadong,5m,Longxiadong_5m_20230630,Xiaoliuqiu,22.3445686,120.3892124,0,0.129831798,0,0,0.000364351,0.000510745,0.001625399,0.000101841,2.08902476376898e-05,0,0,0,0,0.001428087,0,0,0.001663527,0,0,0.000131183,0.000323509,0.00994391,0,0.011795654,0.000300603,0.00834924,0.002324205,0,1.34089238036539e-05,0,0.001393166,0.753947132,0.073989698,0.001585365,0.000356288,30.60363007,22.28019142,40.00014877
Magang_10m_20160727,Magang,10m,Magang_10m_20160727,North,25.0176365,121.9961295,0,0.220317048,0,0,0,0.000137395,0.020793417,0.026041068,0.006960594,0,0,0.006723773,0,0.005789882,0.001185451,0,0,0,0,0.000234683,0,0.00589111,2.51868095489963e-05,0.046522626,0.00018883,0.003304904,0.050990469,0.00134457,0.000615295,0,0.020021802,0.520142233,0.061912908,5.92846892855136e-05,0.000797468,29.44920731,20.21967125,30.94517899
Magang_5m_20210730,Magang,5m,Magang_5m_20210730,North,25.0176365,121.9961295,0,0.472166282,0,0,0,0.000254121,0.013834811,0.005577581,0.002486748,0,0,4.72149692605992e-05,0,0.000477692,0,0,0.007842102,0,5.98717047619048e-05,0.000668797,0.001347967,0.023765837,0,0.036607984,0.017745602,0.008261518,0.004455701,0.000781753,0.005840699,0,0.003694784,0.33107916,0.050105659,0.004089068,0.008809047,29.44920731,20.21967125,30.94517899
Maoao_10m_20190823,Maoao,10m,Maoao_10m_20190823,North,25.017689,121.9901665,0,0.459084261,0.000440674,0,0,0.000310477,0.018200365,0.006226064,0.000296328,0,0,0.000592197,0,0.003888746,0.000123053,0,0,0,0,0.000452095,0,0.002074584,0,0.105829466,0.002849527,0.005829803,0.00195335,0.00064653,0.002742322,0.000467146,0.024328126,0.275916846,0.081470515,0.002985417,0.003292107,29.44920731,20.21967125,30.94517899
Maoao_5m_20210730,Maoao,5m,Maoao_5m_20210730,North,25.017689,121.9901665,0,0.45525825,0,0,0.000330147,0.000161154,0.035052849,0.003997971,0.001560198,0,0,0,0,0.009783533,0,0,0.00806057,0,0,0,0.000147379,0.01663725,2.41482254983023e-05,0.037750571,0.006088999,0.00700337,0.002118914,0.000116402,0.000507358,0,0.005074562,0.310973487,0.084098721,0.003796959,0.011457207,29.44920731,20.21967125,30.94517899
Maobitou_10m_20160515,Maobitou,10m,Maobitou_10m_20160515,Kenting,21.91757867,120.73698,0,0.309168928,0.000512623,0,0,0.002193391,0.008212184,0.006312931,0.00023446,2.41847142615296e-05,0,0.003907513,0.006656743,0.101691,0.001459136,0,0.070980441,0.012999029,0,0.004070557,0.001010613,0.020064628,0.000609381,0.086766251,0.001105357,0.017854389,0.013296192,0.000906801,0.000731889,0.000143113,0.019248572,0.288759027,0.02101685,6.38164961237134e-05,0,30.56221008,23.25788116,39.58085632
Maobitou_5m_20220409,Maobitou,5m,Maobitou_5m_20220409,Kenting,21.91757867,120.73698,0,0.167071236,0,0,0.027335651,0.002442722,0.001953784,0.000353858,0.000203151,0,0,0.002461866,0,0.163639231,0.000183667,0,0.054182478,0,0,0.000296468,0.001037171,0.025245535,0,0.069089369,0.010794125,0.028797866,0.006712979,5.67579596540523e-06,4.50152952380952e-05,0,0.002900781,0.419960996,0.013224015,0.000907953,0.001154405,30.56221008,23.25788116,39.58085632
Maoyu_5m_20210502,Maoyu,5m,Maoyu_5m_20210502,Penghu,23.32628,119.32109,0,0.098135304,0,0,0,0,0.001638843,3.40709905203087e-05,0.000230284,0,0,0.00027904,0,0.024093761,8.13452691078123e-05,0.00052472,0.04551773,3.53832446189559e-05,0,0,0.00036709,0.009945036,0,0.189596944,0.053752973,0.050915669,0.010499699,0.000207163,0.000499982,0,0.00020676,0.470208485,0.021689278,0.009564475,0.011975964,28.70626831,18.67086029,37.56945801
Meirendong_10m_20200612,Meirendong,10m,Meirendong_10m_20200612,Xiaoliuqiu,22.3537675,120.3711475,0,0.145125106,0,0,0,0.008522464,0.009382842,0.004104667,0.000777526,0,0,0.001175403,0,0.008504674,0.000580091,0,0.000492794,9.25863132197339e-05,0,0.015172295,0,0.017029659,0.000255437,0.090169587,0.00377012,0.018487804,0.007977175,0.00109697,0,0,0.008107055,0.558894525,0.099257831,0.000660119,0.000363269,30.60363007,22.28019142,40.00014877
Meirendong_5m_20210901,Meirendong,5m,Meirendong_5m_20210901,Xiaoliuqiu,22.3537675,120.3711475,0,0.207785722,0,0,0.000798918,0.002100969,0.003095825,0.00023915,0.001078754,0,0,0,0,0.001108864,3.86092226623733e-05,0,0.008002645,0,0.000242845,0.000999374,0.000383241,0.018915447,0,0.050012605,0.010301476,0.017667848,0.001938502,5.79166190476191e-05,0.000586506,0,0.003610693,0.592777013,0.073656604,0.002987281,0.001613192,30.60363007,22.28019142,40.00014877
Meiyanshan_5m_20190716,Meiyanshan,5m,Meiyanshan_5m_20190716,North,25.07051933,121.9246427,0.00014241,0.433838905,0,0,0,0.000930388,0.002056833,0.017171155,0.006816515,0,0,0.001075436,0,0.003976618,0.001323725,0,0,0,0.000569811,0.000100882,0,0.005166782,0,0.041687961,0.002300307,0.001417421,0.005710084,0.00046278,0.001231039,0.000169059,0.025156938,0.403946443,0.04248347,0.00198957,0.000275467,29.52860451,19.56199265,29.31368637
Meiyanshan_5m_20210709,Meiyanshan,5m,Meiyanshan_5m_20210709,North,25.07051933,121.9246427,0,0.289226162,0,0,0.000352131,1.41342476190476e-05,0.020525761,0.010103972,0.000637441,0,0,0,0,0.007007888,2.78317714285714e-05,0,0.012316351,0,0.00014273,0.000107132,9.89403564052837e-05,0.04076599,0,0.041659468,0.002649348,0.001647163,0.01096991,0.000423839,0.000109579,0,0.00101476,0.496501133,0.040826186,0.007844662,0.015027486,29.52860451,19.56199265,29.31368637
Meiyanshan_5m_20220822,Meiyanshan,5m,Meiyanshan_5m_20220822,North,25.07051933,121.9246427,0,0.403827021,0,0,0,0.001679617,0.002115155,0.00022373,0.007936684,0,0,8.52820380952381e-05,0,0.005283987,0.002518611,0,0.001727334,0,0.004576949,0.000492467,0,0.001184447,8.80740073437978e-05,0.049814184,0.023812161,0.005483657,0.001169566,0,0.000849429,7.26536981452948e-05,0.001952536,0.439416072,0.036944679,0.006044205,0.002701501,29.52860451,19.56199265,29.31368637
Mianhua_5m_20210816,Mianhua,5m,Mianhua_5m_20210816,North,25.48455,122.10243,0,0.176800824,0,0,0.000608595,0,3.90659034975984e-05,0.000300982,0.001292729,0,0,0,0,0.006868968,0,0,0.006023548,0,1.3298942830545e-05,0,0.003377345,0.007314231,0.000129188,0.184316654,0.05467383,0.020811462,0.148596164,0.000350692,0.001217857,0,0.001564537,0.360860434,0.016337005,0.005192193,0.003310396,29.70594025,19.14260674,32.45939636
Midaoyan_5m_20230525,Midaoyan,5m,Midaoyan_5m_20230525,East,24.597983,121.897217,0,0.573911368,0,0,5.08140381173984e-05,0.000242118,0.002583164,0.001959538,0.003141162,0,0,0,0,0.000312983,0,0,0.00303229,0,8.90030922932826e-05,0.000132767,0.000419078,0.008138899,0,0.034688673,0.00288375,0.0026178,0.001605545,0.00029801,0.008244484,0.00019425,0.00017255,0.32883492,0.014529853,0.00724582,0.004671159,29.4751091,21.92788696,31.06131554
Midaoyu_5m_20230525,Midaoyu,5m,Midaoyu_5m_20230525,East,24.6003,121.9014,0,0.590051113,0,0,0.000407415,0.00024471,0.000493036,5.21784306968521e-05,5.3138349522884e-06,0,0,0,0,0,0.000246295,9.95030017221984e-05,0.00129842,0,0.00091148,0,0.001046049,0.006625373,0,0.004787972,0.001399098,0.000258814,0.00065598,7.58293756420877e-05,0.003391969,0.000195444,0.00109865,0.360518303,0.014307636,0.011227921,0.000601499,29.4751091,21.92788696,31.06131554
Mudouyu_5m_20210511,Mudouyu,5m,Mudouyu_5m_20210511,Penghu,23.78733,119.60176,0,0.316784617,0,0,4.79594733109554e-05,0.000160528,0.006986553,0.00642483,0.000572448,0,0,0,0,0.015506007,0,0,0.006451534,0,0,0,0.04178511,0.027650403,0,0.071468699,0.01657348,0.002258126,0.080845353,0,3.25308729599326e-05,0,0.003823393,0.319908215,0.082262415,0.000457799,0,29.17194176,18.03724289,36.43605042
Mujiyan_10m_20190801,Mujiyan,10m,Mujiyan_10m_20190801,Lanyu,22.082923,121.5572385,0,0.190557564,0,0.001000654,0.004143481,0.004762071,0.000561416,0.002597391,0.000765669,6.32938815778003e-05,0.006562538,0.057647569,0.034622426,0.002506415,0.003207953,0,0,0,0.001323623,0,7.99310080137321e-06,0.040727979,0.017690286,0.158716323,0.00116471,0.006591529,0.015466787,0,0.000653563,0.002169319,0.017670333,0.417370316,0.010889488,0.000174677,0.000384631,30.17884827,23.69597626,35.10884476
Mujiyan_5m_20220714,Mujiyan,5m,Mujiyan_5m_20220714,Lanyu,22.082923,121.5572385,0,0.206910647,0,0,0.002495583,0.000859933,0.000105625,0,0,0,0,0.002654907,0,0.013877588,0.000521307,0,0.010412349,0,0.000209158,0,0.002683558,0.0203829,0.001041124,0.206440353,0.02390264,0.041712508,0.074939125,0,0.008853862,4.73981017050334e-05,0.032905346,0.320066318,0.022208861,0.00415394,0.002614969,30.17884827,23.69597626,35.10884476
North_Inner_Atoll_5m_20200509,North_Inner_Atoll,5m,North_Inner_Atoll_5m_20200509,Dongsha,20.7065,116.806167,0,0.196252962,0.000183506,0,0.00067943,0.009725718,0.000400372,0.006308453,0,0,0.000140415,0.002966868,0.000541836,0.083548619,0.00336315,0,0.001476829,0.003730695,0,0,0,0.002055504,0.011744753,0.19168708,0.090918965,0.087303718,0.002019984,0.000655059,0.000541952,0.000176142,0.04755349,0.239963439,0.01432441,0.001272005,0.000464647,30.53243065,21.72820854,37.31370544
North_Outer_Atoll_10m_20200510,North_Outer_Atoll,10m,North_Outer_Atoll_10m_20200510,Dongsha,20.779417,116.802383,0,0.127245918,0,0,7.99389904761904e-05,0.001441337,3.12981914810623e-05,0.000984122,0,0,0,0.005704443,0.006079213,0.533002232,0.003477245,0,0.058250099,0.015268093,0,0,0.000431527,0.008038869,0,0.052870572,0.000728033,0.006561304,0.003903743,0,0.00035536,0.00059685,0.016822245,0.131703345,0.026424211,0,0,30.45489693,21.68671608,37.11113739
Outlet_5m_20220407,Outlet,5m,Outlet_5m_20220407,Kenting,21.930777,120.744966,0,0.167210673,0,0,0.038874736,0.004012252,0.003498639,0.000230382,0.001165051,0,0,5.79450761795368e-05,0,0.099874861,0.000471925,0,0.012924008,0,0,0.000426699,0.004300111,0.04454333,0,0.104347645,0.03208522,0.011334138,0.026436666,0.000286031,0,0,0.004559976,0.432670189,0.010447035,0.000242487,0,30.45998764,23.24942207,38.59011841
Pengjia_5m_20210816,Pengjia,5m,Pengjia_5m_20210816,North,25.62307,122.0725,0,0.146984872,0,0,7.96049197076761e-05,0.000113794,1.90895714094819e-05,4.23019047448942e-05,0,0,0,0,0,0.064062069,5.90750380361631e-05,0,0.027731667,0,0,0,0.005577256,0.008024105,0,0.169835378,0.044070466,0.013217523,0.199246457,0,0.00030812,0,0.003005419,0.290185964,0.011956457,0.006770226,0.008710154,29.76141739,19.16381264,32.25244141
Ponpontan_5m_20210511,Ponpontan,5m,Ponpontan_5m_20210511,Penghu,23.67268,119.6388,0,0.18737413,0,0,0,0,0.00714313,0.000461755,3.57127075553743e-05,0,0,0,0,0.003206601,0.000234078,0,0.005317024,0,0,0.000321047,0.179813929,0.005538323,0,0.020815945,0.007388864,0.001939681,0.010408158,0.00030447,0,0,0.001004435,0.485425894,0.083031249,0.00018629,4.92844050913047e-05,29.33598709,18.60025787,36.60305786
Qimei_5m_20210430,Qimei,5m,Qimei_5m_20210430,Penghu,23.19146,119.43095,0,0.173891236,0,0,0,0,0.002473711,0.000447225,0.000510275,0,0,0,0,0.077883992,0,0,0.01235114,0,0,0,0.113555225,0.002737427,0,0.024017271,0.015097189,0.008411077,0.073783629,0,5.4299296815678e-05,0,0.000924242,0.426078581,0.063441054,0.001651755,0.002690672,29.39408875,19.41087723,38.24254608
Qingqingcaoyuan_10m_20190730,Qingqingcaoyuan,10m,Qingqingcaoyuan_10m_20190730,Lanyu,22.008769,121.5676815,0,0.15934068,0,0,0.000407207,0.00083671,0.000191241,0,0,0,0.000321667,0.007206884,0.00023242,0.001702885,0.016177955,0,0.001073639,0,0.000381636,0.001400101,0,0.065034636,0.005988493,0.10427461,0.002209878,0.005813711,0.147939605,0,1.39570762323474e-05,0,0.067866633,0.282525961,0.129059493,0,0,30.19748878,23.75863647,36.0091629
Qingqingcaoyuan_5m_20220712,Qingqingcaoyuan,5m,Qingqingcaoyuan_5m_20220712,Lanyu,22.008769,121.5676815,0,0.335405222,0,0,0.003519523,0.014407412,0.000414421,0,0,0,0,0.000457867,0.000112062,0.008917089,6.22370857142857e-05,0,0.004691537,0,0,0,0.007277311,0.107800733,7.10596e-05,0.097830428,0.009796512,0.024373786,0.020011361,9.42629047619047e-05,0.0009442,0,0.012653611,0.284107571,0.065057102,0.001411936,0.000582757,30.19748878,23.75863647,36.0091629
Qingrendong_5m_20220715,Qingrendong,5m,Qingrendong_5m_20220715,Lanyu,22.065633,121.570883,0,0.201173466,0.000144552,0,0.00128317,0.012079046,9.94237713291477e-05,7.6759122801888e-05,2.77812787941372e-05,0,0,0.00733999,0.000377607,0.007512854,0.002275403,0,0.005393258,0,0.001232348,0,0.000260466,0.05399088,0.002753453,0.26339658,0.002995794,0.010858546,0.035975887,0.000350229,0.003643161,6.93895331945543e-05,0.010597078,0.359527057,0.012062879,0.002994654,0.001508288,30.14136124,23.72258568,35.00486374
Qingwan_5m_20200827,Qingwan,5m,Qingwan_5m_20200827,Penghu,23.533805,119.563485,0,0.06214834,0,0,0.000472861,0.002067896,0,0.003977429,3.78414239097294e-05,0,0,0.003092216,0,0.009947802,0.003713755,0,0.0002129,0.00055328,0,0,0.000174885,0.00642657,0.000171203,0.064464767,0.02462538,0.011901256,0.002592427,0.004652474,0.000855907,4.44821832523132e-05,0.000707011,0.690130308,0.105810517,0.001218493,0,28.87810326,18.69984818,36.06074905
Qingwan_5m_20210508,Qingwan,5m,Qingwan_5m_20210508,Penghu,23.533805,119.563485,0,0.076731963,0,0,4.41128788524702e-05,5.58320355114493e-05,0.000625003,0.001082965,0,0,0,0,0,0.002862965,0,0,0.008193007,0,0,0,0.009742935,0.004477583,0.000262844,0.025457168,0.096666913,0.014199108,0.00301656,0.000843213,0.000340702,0,0.000908956,0.604336521,0.140281417,0.00322083,0.006649403,28.87810326,18.69984818,36.06074905
Qingwan_Inner_Bay_5m_20210507,Qingwan_Inner_Bay,5m,Qingwan_Inner_Bay_5m_20210507,Penghu,23.52964,119.55956,0,0.073768916,0,0,6.12344467015296e-05,0,0.001013403,0.000743732,7.19557335556419e-05,0,0,0,0,0.005721647,0.000118848,0,0.044825569,0,0,6.90983279261212e-05,0.008260114,0.008139074,0,0.05334592,0.222836226,0.013116837,0.000918778,0.0008122,0,0,5.85352840927578e-05,0.522516468,0.043370427,0.000231017,0,28.87810326,18.69984818,36.06074905
Qixingyan_5m_20220412,Qixingyan,5m,Qixingyan_5m_20220412,Kenting,21.759668,120.826478,0,0.175407592,0,0,0.001026127,0.003239963,0,0,7.85499290266747e-05,0,0,0,0,0.013818618,0.000530792,0,0.015808924,0,0,0,0.001236068,0.407408284,0,0.033499456,0.005103124,0.016197982,0.015634005,5.7010076076456e-05,0.001063609,2.34218761436324e-05,0.002916909,0.297907988,0.00661366,0.002169137,0.000258783,30.49918747,23.44789314,39.46483994
Shanfu_10m_20200612,Shanfu,10m,Shanfu_10m_20200612,Xiaoliuqiu,22.3410075,120.361441,0,0.119374421,0.00146877,0,0.000356807,0.007064282,0.006627103,0.001403525,0.000105863,0,0,0.003065638,0,0.007204831,0.000965216,0,0.000715541,0,0,0.005149405,0,0.021781226,0,0.121067833,0.002263593,0.029100336,0.000607048,6.65109733506422e-05,0.001646371,0.000100797,0.022585468,0.535256079,0.111421688,0.000144985,0.000456663,30.60363007,22.28019142,40.31570053
Shanfu_5m_20210902,Shanfu,5m,Shanfu_5m_20210902,North,22.3410075,120.361441,0,0.202984804,0,0,0.000110681,0.001545969,0.003454049,5.92483219719093e-05,0.000665144,0,0,6.91658290862698e-05,0,0.001216262,7.66591540641633e-05,0,0.007421589,0,0.000434415,0.001004354,0.000657155,0.011368292,4.00806664275077e-05,0.063503041,0.011073451,0.047091669,0.002198247,4.50310626247307e-05,0.000473782,1.64266586551486e-05,0.003705328,0.5936353,0.044400296,0.001711679,0.001037879,30.60363007,22.28019142,40.31570053
Shenao_5m_20190626,Shenao,5m,Shenao_5m_20190626,North,25.13501,121.819888,0.000117622,0.513407744,0,0,0,0,0.089843838,0.012611323,0.020931597,0,0,0.000770408,0.000313737,0.00020127,0.001861644,0,0,0,1.08289358310082e-05,0,0,0.001571541,0,0.099064844,0.002902124,0.004023115,0.001273744,0.003541481,0.001008263,0.000348794,0.004339832,0.214335966,0.015948977,0.009557518,0.002013789,29.62391472,19.07783508,29.28829956
Shenao_5m_20210618,Shenao,5m,Shenao_5m_20210618,North,25.13501,121.819888,0,0.184753815,0,0,0,0,0.00847547,0.033488734,0.000868765,0,0,2.2286476393779e-05,0,0.000383139,5.1038285765324e-05,0,0.006672422,0,0,0,0.00010407,0.00656816,0,0.106550688,0.009802671,0.013874554,0.002031428,0.000151638,0,0,0.002546778,0.581757722,0.038187456,0.001838889,0.001870277,29.62391472,19.07783508,29.28829956
Shicheng_10m_20200917,Shicheng,10m,Shicheng_10m_20200917,North,24.979191,121.953349,0,0.264158648,1.19533324000425e-05,0,0,0.019627416,0.009452138,0.00047933,0.003604202,0,0,0.000471294,0.000208281,0.001121992,0.000252864,0,0.000156345,0,0,0,0,0.002664171,0,0.099953161,0.003284512,0.003204493,0.000819068,0.007099448,0.004019517,0.000131808,0.001693055,0.550494752,0.026526536,0.000524412,4.06026201254637e-05,29.41221619,20.06373024,29.9277935
Shicheng_5m_20230811,Shicheng,5m,Shicheng_5m_20230811,Ludao,24.979191,121.953349,0,0.347449535,0,0,0.000302416,0.014912879,0.027683798,0.002396337,0.002240505,0,0,0,0,0.002633902,0.000726856,0,0.002870814,0,0,0.000891127,0.001535463,0.016405429,0,0.118694564,0.008949341,0.007078399,0.007428826,0.000498378,0.003674749,0,0.000997335,0.407794854,0.020890322,0.002488527,0.001455644,29.41221619,20.06373024,29.9277935
Shilang_10m_20170103,Shilang,10m,Shilang_10m_20170103,Ludao,22.64999567,121.4715923,1.98688952579641e-05,0.136175908,2.38085523809524e-05,0,0.000251475,0.000701389,0.000378492,0.000798345,0.000318955,0.000683479,0.000170345,0.110015884,0.24143426,0.005992087,0.020081354,4.73785055120183e-05,0.000149861,0.001288831,0.001850764,9.99287615013182e-05,0.006045996,0.006964227,0.005316097,0.10789624,0.010279531,0.014186097,0.021816402,0,0.001567932,0.00654914,0.014846063,0.239887322,0.044162538,0,0,30.25894165,23.23961067,35.4001236
Shilang_5m_20220628,Shilang,5m,Shilang_5m_20220628,North,22.64999567,121.4715923,0.003076424,0.127631246,0,0,0.011387354,0.003638407,0.000266632,0.000143001,0.000291021,0,0.000122049,0.049415057,0.07549621,0.014040466,0.07146523,0.000427937,0.003212591,0.000599367,0.001435444,0.000130326,0.003949085,0.012994068,0.006118306,0.114559599,0.037907223,0.029709151,0.051893058,0.000528154,0.000938958,0.000844087,0.036259012,0.289772678,0.051134779,0.000218263,0.000394819,30.25894165,23.23961067,35.4001236
Shimendong_5m_20230609,Shimendong,5m,Shimendong_5m_20230609,East,25.300883,121.568967,0,0.534931097,0,0,0,0,0.003913554,0.000323313,0.002594486,0,0,0,0,2.26280300083741e-05,0,0,0.000512484,0,0,0,0,0.000329598,0,0.011789131,0.001431109,0.000922814,0.000216228,0,0.001115806,0,0.00396241,0.381460717,0.056165127,1.04695333333333e-05,0.000299028,30.04746437,17.54115486,30.72304535
Shitiping_10m_20190822,Shitiping,10m,Shitiping_10m_20190822,East,23.48359567,121.5140817,0,0.144478133,0.000453967,0.000170153,0.002921512,0.028844388,0.003089733,0.009424986,0.000588723,0,0,0.006856518,0.000970878,0.162491397,0.00376655,5.50838381503219e-05,0.07443031,0.017530083,0,0.003224597,0.000264567,0.006415742,0.000254128,0.113046709,0.00541526,0.029861147,0.010711757,6.81574856461282e-05,0.001193089,0.000268443,0.016277488,0.263469559,0.092694804,0.000251722,0.000510418,29.5403595,23.28019714,31.81890869
Shitiping_5m_20190822,Shitiping,5m,Shitiping_5m_20190822,East,23.48359567,121.5140817,0,0.17262694,0.000482491,0.00027167,0.001275912,0.071436459,0.002246001,0.011496387,0.000663493,0,0,0.014380023,0.000599721,0.14722879,0.002710833,0,0.005213617,0.004025684,0,0.000737246,0.000183317,0.014880579,0,0.112710988,0.006725697,0.025122054,0.007342837,4.6748482361334e-05,4.01142692408334e-05,1.84369047434679e-05,0.021930459,0.316436958,0.052867437,0.000272644,0.006026464,29.5403595,23.28019714,31.81890869
Shitiping_5m_20210826,Shitiping,5m,Shitiping_5m_20210826,East,23.48359567,121.5140817,0,0.238744418,0,0,0.009203389,0.00167478,0.00157875,0.000255907,0.001566295,0,0,0.008458958,0,0.011444757,0.002072101,0,0.057382155,0,0,0,0.000399241,0.027527187,0.000156773,0.099266039,0.028754926,0.006225073,0.009990265,0.000163136,0.000373599,0,0.000447427,0.44596676,0.037117181,0.006166817,0.005064065,29.5403595,23.28019714,31.81890869
Shiyusan_5m_20190821,Shiyusan,5m,Shiyusan_5m_20190821,East,23.176941,121.403573,0,0.373301846,2.05757142651386e-05,0,0,0.006559729,0.01078247,0.000344356,0.004286955,0,0,0.001242184,0,0.002453546,0.00088793,0,0,0,0,0,0,0.001702522,0,0.068023011,0.000452182,0.001496958,0.000635639,0.000150479,0.004209589,6.23868383061773e-05,0.003293871,0.486090213,0.034003557,0,0,29.73147202,23.11161613,31.11494637
Shiyusan_5m_20210827,Shiyusan,5m,Shiyusan_5m_20210827,Lanyu,23.176941,121.403573,0,0.345483602,0,0,0,0.000143883,0.016227049,0.000646725,0.000437035,0,0,5.07811767657985e-05,0,0.002706721,0.000665246,0,0.017756649,0,0.000197094,8.69823262412003e-05,0.001350032,0.003714164,0,0.037361927,0.005482435,0.000683748,0.003751196,0.000391678,0.001179094,0,0.000604994,0.540510971,0.016526176,0.002756536,0.001285281,29.73147202,23.11161613,31.11494637
Shuangshiyan_10m_20190801,Shuangshiyan,10m,Shuangshiyan_10m_20190801,Lanyu,22.0844695,121.5650225,0,0.107040029,0,0,0.000152514,0.000535528,9.63216396517254e-05,0,8.06865063164802e-06,0,0.004869019,0.052014818,0.019623977,0.002355958,0.002084499,0,0.001054017,0,0.000783653,0,0,0.034633605,0.064274284,0.205253061,0.001077571,0.007103537,0.043074242,0,0.000587108,4.76286059816488e-05,0.025199433,0.41716241,0.009481872,0.001455068,3.17762104938949e-05,30.17884827,23.69597626,35.10884476
Shuangshiyan_5m_20220714,Shuangshiyan,5m,Shuangshiyan_5m_20220714,Kenting,22.0844695,121.5650225,0,0.186228134,0,0,0.003732307,0.013255891,0.000696153,3.22011047619048e-05,0,0,0,0.000837764,0.000494243,0.021776016,6.65116571517994e-05,0,0.009579332,0,0,0,0.002413738,0.020404146,0,0.236733055,0.019269221,0.025882897,0.023661272,0,0.001546944,0,0.029155131,0.372319802,0.027410629,0.001596863,0.002907749,30.17884827,23.69597626,35.10884476
Siangjiaowan_1_5m_20220408,Siangjiaowan_1,5m,Siangjiaowan_1_5m_20220408,Kenting,21.923168,120.831831,0,0.129131144,0,0,0.004082094,0.001488956,0.005904364,0.000543121,4.91277087732212e-05,0,0,0.004987422,6.70188761234573e-05,0.012379166,1.98643428372785e-05,0,0.012512642,0,3.02326666666667e-05,0.000314698,2.11609499957443e-05,0.052809531,6.76619606626673e-05,0.140041633,0.040198999,0.025621055,0.018446098,0,2.07954856726947e-05,0,0.003342013,0.533775707,0.013517433,0.000592372,3.5688001067951e-05,30.37637901,23.28062248,38.28377914
Siangjiaowan_2_5m_20220408,Siangjiaowan_2,5m,Siangjiaowan_2_5m_20220408,Penghu,21.924626,120.829325,0,0.134706494,0,0,0.000229881,0.004842722,0.004066152,0,1.68261847646748e-05,0,0,0.001557771,0,0.007611909,0.000363007,0,0.009427424,0,0,0,0.000920781,0.024426042,0,0.209957065,0.084674444,0.016361077,0.018063376,0,0,0,0.005663599,0.455219844,0.021637153,0.000247178,7.25353450066721e-06,30.37637901,23.28062248,38.33669281
Sijiaoyu_5m_20200826,Sijiaoyu,5m,Sijiaoyu_5m_20200826,Penghu,23.55648,119.54309,0,0.071344343,0,0,0,0.002173912,0,0.001042749,0.000517986,0,0.000106599,0.000849914,0,0.027067589,0.001542006,0,0.000986968,0.00027421,0,0,0.000565502,0.007612832,0.001019975,0.178908922,0.037270824,0.013929295,0.00215118,0.001807746,0.003296055,0,0.000660648,0.532412869,0.111254536,0.002765841,0.000437499,28.93770409,18.61718178,35.45248032
Sijiaoyu_5m_20210507,Sijiaoyu,5m,Sijiaoyu_5m_20210507,Dongsha,23.55648,119.54309,0,0.060977624,0,0,0,0,0.000146252,0.000208254,0,0,0,0,0,0.004406154,7.34238152352774e-06,0,0.022865685,0,0,9.01150018044438e-05,0.011931657,0.006353286,0,0.045234659,0.361059325,0.010072527,0.016527082,0.000649151,0.000243167,0,0.000315561,0.423236629,0.034643415,0.001032116,0,28.93770409,18.61718178,35.45248032
South_Inner_Atoll_5m_20200508,South_Inner_Atoll,5m,South_Inner_Atoll_5m_20200508,Dongsha,20.643933,116.806167,0,0.083612379,0.000133477,0,0,0.002400131,0.00083351,0.003714098,8.03241733931174e-05,0,0,0.003519605,0.000489534,0.013990369,0.009705034,0,0.005757298,0.001159421,0,0.00049461,5.58725047619048e-05,0.001082607,0.007442815,0.276361096,0.056505921,0.137032886,0.004510346,6.74253047619048e-05,0.000356111,0,0.06988026,0.253147017,0.067427033,0.000168567,7.22517999277482e-05,30.52097893,21.76419449,37.7371788
South_Outer_Atoll_10m_20200511,South_Outer_Atoll,10m,South_Outer_Atoll_10m_20200511,Dongsha,20.586233,116.795367,0,0.141307704,0.000176806,0,0.000496706,0.004137049,0,0,0,0,0,0.000211266,0.000611612,0.030928334,0.003472791,0,0.008223118,0.002792992,0,1.06628095131467e-05,0.005593402,0.049997553,0.000688844,0.382232617,0.002061794,0.015939741,0.052859282,1.32676571428571e-05,0.000278499,7.34708737965323e-05,0.093577111,0.178860216,0.023921941,0.000383936,0.001149289,30.47310257,21.80844688,37.85315323
Southwest_Outer_Atoll_10m_20200512,Southwest_Outer_Atoll,10m,Southwest_Outer_Atoll_10m_20200512,Kenting,20.594948,116.76495,0,0.171411042,0.000289785,0,0.000100208,0.002241184,0,0.000345164,0,0,0,0.000224069,0.000897007,0.013431445,0.000230512,0,0,0.000575077,5.46548682229358e-05,0,0.005192183,0.069003087,0.001281593,0.27544988,0.002832296,0.00651952,0.183523887,0,0,0.000144458,0.075532065,0.157306232,0.031659351,0.000110939,0.001644363,30.47310257,21.80844688,37.85315323
Tiaoshi_5m_20220408,Tiaoshi,5m,Tiaoshi_5m_20220408,Penghu,21.953376,120.769226,0,0.0847962,0,0,0.14142029,0.000755941,0.005779782,4.14619447901395e-05,0.000230826,0,0,7.04393715175681e-05,0,0.004462183,0.000512924,0,0.005614045,0,4.91448430972442e-05,0.000642275,0.038671712,0.021309636,0.000200096,0.112917996,0.038969893,0.023746752,0.121797129,0.000273412,0,0,0.002425235,0.36728955,0.027149749,0.000873328,0,30.45998764,23.24942207,38.59011841
Tiezhenyu_North_5m_20200828,Tiezhenyu_North,5m,Tiezhenyu_North_5m_20200828,Penghu,23.70989,119.56705,0,0.085157728,0.00035577,0,0.00012841,0.001021843,0,0.000336096,0,0,0,0.00037326,0,0.026386706,0.002374994,0,0.000713179,0,0,0,0.003831623,0.01559175,0.000292444,0.077687294,0.0082598,0.022850675,0.025807572,0.000916493,0.001028232,0,0.001879454,0.538465064,0.185402123,0.000554335,0.000585155,28.9536953,18.21903229,36.45840454
Tiezhenyu_North_5m_20210510,Tiezhenyu_North,5m,Tiezhenyu_North_5m_20210510,Penghu,23.70989,119.56705,0,0.160091476,0,0,0,0,0.000552641,1.23937143105017e-05,0.000157481,0,0,0,0,0.016027066,0,0,0.008889591,0,0,0,0.016713841,0.031239436,0,0.143735981,0.047673097,0.015339901,0.11142688,0.000926911,3.40815810205441e-05,0,0.002024028,0.397141628,0.042528367,0.003630421,0.001854779,28.9536953,18.21903229,36.45840454
Tiezhenyu_South_5m_20210509,Tiezhenyu_South,5m,Tiezhenyu_South_5m_20210509,Penghu,23.27507,119.50363,0,0.060303409,0,0,0,0.000271833,0.000104289,0.000149553,0,0,0,0,0,0.046200425,7.66089298253504e-05,0,0.02155475,0,4.1056567306781e-05,0.000694896,0.030805593,0.032478544,0,0.041894172,0.486876804,0.018803508,0.013077947,5.30691858840612e-05,0.000547496,0,0.001119495,0.21486814,0.022469176,0.002057297,0.005551935,29.39041519,19.47366142,38.04005051
Tongpanyu_10m_20200825,Tongpanyu,10m,Tongpanyu_10m_20200825,Penghu,23.512195,119.522685,0,0.095208375,0,0,0,0.006427674,0.000321304,0.000391395,7.91230472394791e-05,0,0,0.0028835,0,0.012842761,0,0,0.00012096,8.4775429212382e-05,0,0,0,0.003615434,0.004115234,0.087506582,0.008209478,0.018409082,0.000677471,0.001356634,0.004340024,0.001273116,0.000644125,0.504240823,0.171699361,0.03007037,0.045482399,28.87810326,18.69984818,36.87475204
Tongpanyu_5m_20210507,Tongpanyu,5m,Tongpanyu_5m_20210507,Penghu,23.512195,119.522685,0,0.098522001,0,0,0,0,0.000678159,2.09450840925281e-05,0.000198512,0,0,0,0,0.019144659,0,0,0.018504379,0,0,0.001499854,0.00228211,0.080266273,0,0.060637295,0.12525597,0.025788782,0.017842489,0.003938952,0.000934653,0,0.000954563,0.387917795,0.044772884,0.029267018,0.081572707,28.87810326,18.69984818,36.87475204
Toujinyu_5m_20210509,Toujinyu,5m,Toujinyu_5m_20210509,North,23.28883,119.50281,0,0.128684368,0,0,0,4.70928761904762e-05,9.04095238999334e-06,0,0,0,0,3.09480380952381e-05,0,0.153832833,1.20853904761905e-05,0,0.024321701,0,0.000135654,9.8603162003365e-05,0.002896481,0.007240056,8.3016000083016e-06,0.077546149,0.038077179,0.011247779,0.075542006,5.62430348774563e-05,0.000263671,0,0.002697409,0.349726714,0.03681398,0.012529191,0.078182514,29.17439461,19.32614517,38.17715454
Waimushan_5m_20210811,Waimushan,5m,Waimushan_5m_20210811,Penghu,25.162442,121.731966,0,0.397350905,0,0,0,0,0.033517948,0.001433852,0.001702152,0,0,0,0,0.001717351,0.000202768,0,0.007360437,0,4.71894031641322e-05,0,0.001004526,0.00928065,0,0.153659554,0.024079958,0.012361166,0.001642599,0,0.000124046,0,0.001521353,0.324657799,0.017955592,0.002044914,0.008335241,29.77444839,18.56258011,29.44047356
Wangan_5m_20210430,Wangan,5m,Wangan_5m_20210430,Kenting,23.38378,119.5124,0,0.216241234,0,0,0,9.16275802614959e-05,0.002532386,0,1.57052576497827e-05,0,0,0.000160025,0,0.048547783,2.97364354633209e-05,0,0.028496741,0,0,0.000175698,0.000477758,0.040768268,0,0.048898314,0.023367329,0.008944247,0.005842494,0.000365773,7.71903401167951e-06,0,0.001735917,0.539324863,0.024468314,0.00297146,0.006536607,28.84854126,19.0343895,37.93592453
Wanlitung_5m_20220406,Wanlitung,5m,Wanlitung_5m_20220406,Dongsha,21.99535,120.700647,0,0.093077311,0,0,0.011061578,0.000313456,0.001678699,6.9996780991258e-05,8.27013978559394e-05,0,0,0.006839245,0,0.013404837,0.000420485,0,0.010515645,0,0.00012339,9.03484644845975e-05,0.001223556,0.024967285,0,0.031654893,0.010696361,0.00865577,0.002605712,0,1.11085347957149e-05,0,0.001811888,0.753597237,0.02610494,0.000661195,0.000332364,30.58568954,23.21359634,39.06655502
West_Inner_Atoll_5m_20200509,West_Inner_Atoll,5m,West_Inner_Atoll_5m_20200509,Xiaoliuqiu,20.69495,116.751533,0,0.388043975,0.000749259,0,0,0.000100495,0,0.000868327,2.94487494128333e-05,0,0,0.000305471,0.000177875,0.002948365,0.001615774,0,6.92586438341469e-05,0,0,0,0,2.65517905027423e-05,0.000440191,0.032754825,0.005037968,0.010172789,0.00024607,0,1.49424059742944e-05,0,0.18021875,0.339648126,0.036402182,0.000129355,0,30.52496719,21.72826195,37.21979523
Wuguidong_10m_20200610,Wuguidong,10m,Wuguidong_10m_20200610,Xiaoliuqiu,22.331055,120.3541635,0,0.07652405,0.001551514,0,0,0.003535736,0.01148093,0.000435118,0,2.61119809523809e-05,4.30718857573576e-05,0.002528095,4.52870285261415e-05,0.002399142,0.00259955,0,0,0.001070916,0,0.01157305,0,0.014457539,2.82830095803755e-05,0.067413492,0.00261645,0.013510405,0.003885182,0,0,0,0.009719187,0.610037544,0.164455666,0,6.36797047619048e-05,30.60363007,22.28019142,40.42216873
Wuguidong_5m_20210901,Wuguidong,5m,Wuguidong_5m_20210901,East,22.331055,120.3541635,0,0.306655448,0,0,0.001666356,0,0.003095496,0.000769139,0.000601832,0,0,0.003549717,0,0.001773788,0.000684538,0,0.013050744,0,0,0.000337862,0.00523918,0.022406864,0,0.025123982,0.003869835,0.030711984,0.002867092,4.08162001816205e-05,4.19299238095238e-05,0,0.001786324,0.542443628,0.029697054,0.002714768,0.000871623,30.60363007,22.28019142,40.42216873
Wushibi_5m_20210824,Wushibi,5m,Wushibi_5m_20210824,Penghu,24.484094,121.857612,0,0.202056477,0,0,0.00217314,0.006547537,0.000573974,0.000133259,0.000381162,0,0,5.48436009052673e-05,0,0.06449556,0.000186941,0,0.069066052,0,0,0,0.000537808,0.009011793,0.000117059,0.057242755,0.013740245,0.024046619,0.009759137,0.001602142,0.011953902,5.4067428625496e-06,0.004723888,0.476464013,0.03110271,0.007962673,0.006060907,29.59700966,22.24241066,29.76206017
Xiaomenyu_5m_20200826,Xiaomenyu,5m,Xiaomenyu_5m_20200826,Penghu,23.65147,119.529305,0,0.122467291,0,0,0,0.002157416,2.36014291684827e-05,0.000542431,0,0,0,0.00157114,0.00024341,0.020850653,0.000241054,0,0,0,0,0.000205685,0.001436172,0.012888087,0.000976922,0.227309306,0.030468774,0.016772088,0.014236581,0,0,0,0.002297978,0.503121835,0.035141004,0.004684886,0.002363684,28.92212486,18.36055946,36.25774384
Xiaomenyu_5m_20210510,Xiaomenyu,5m,Xiaomenyu_5m_20210510,Kenting,23.65147,119.529305,0,0.262362499,0,0,7.37700586601371e-05,0,0.004241806,5.82746317169719e-05,0.000291177,0,0,0,0,0.006758646,2.16433409304374e-05,0,0.03348687,0,0,0,0.013845851,0.029339095,0,0.10669635,0.120787768,0.024487203,0.014290701,8.85644165219184e-06,1.89638140438608e-05,0,0.000681041,0.347709654,0.02547241,0.008338159,0.001029262,28.92212486,18.36055946,36.25774384
Xiaowan_10m_20160516,Xiaowan,10m,Xiaowan_10m_20160516,Kenting,21.93015967,120.7956467,0,0.200894853,0.000982081,0,0.001142187,0.006703645,0.010419193,0.008454583,0.000586089,0,0,0.002717985,2.78520761904762e-05,0.047129325,0.002220432,0,0.018376571,0.001183778,0,0.003800725,1.30456514969067e-05,0.017171266,0.000245721,0.139312454,0.002547193,0.008829744,0.009930996,0.001636086,0.000422986,0,0.022890688,0.449538894,0.042024298,0.000204927,0.000592405,30.37637901,23.28062248,38.33669281
Xiaowan_5m_20220412,Xiaowan,5m,Xiaowan_5m_20220412,North,21.93015967,120.7956467,0,0.160133129,0,0,0.025617379,0.001179442,0.0140245,0.000212455,0.001109303,0,0,0.006409726,0,0.019335308,0.000426456,0,0.005700032,0,4.45072480039506e-05,0.000276421,0.005713154,0.050679457,0,0.023939346,0.026823791,0.004564038,0.009963649,0.000279516,0,0,0.001111879,0.620144613,0.022128863,0.000183033,0,30.37637901,23.28062248,38.33669281
Xiaoxianglan_5m_20210812,Xiaoxianglan,5m,Xiaoxianglan_5m_20210812,East,25.02667,121.97327,0,0.491439445,0,0,0,0.000403804,0.028147002,0.001125737,0.000727716,0,0,0,0,0.003692174,4.42167030831427e-05,0,0.007355565,0,0,0,0.000434407,0.006442641,0,0.049350669,0.002353191,0.002507711,0.008057234,0.000408166,0.001957766,0,0.001543466,0.374532275,0.013571999,0.002829903,0.003074914,29.49176407,19.9825592,30.02545547
Xiaoyeliu_10m_20190820,Xiaoyeliu,10m,Xiaoyeliu_10m_20190820,East,22.802199,121.2002613,0,0.363670646,0.000798233,0,0,0.020439579,0.017017099,0.019174187,0.00611811,0,0,0.004542092,0,0.029031055,0.000701604,0,0.002311757,0,0,0.002255326,0,0.002101039,0,0.04658392,0.000305486,0.005627273,0.000460535,0.000748957,0.000807883,0,0.011669618,0.425077087,0.038447414,0.000380529,0.001730572,29.97533798,23,34.23238373
Xiaoyeliu_5m_20190820,Xiaoyeliu,5m,Xiaoyeliu_5m_20190820,East,22.802199,121.2002613,0,0.225962877,0.000119997,0,0.00060706,0.026980916,0.009724191,0.006826773,0.000700171,0,0,0.002243296,0,0.019781788,0.00304474,0,0.000857385,0.000193586,0,0.000548927,3.99938476190476e-05,0.004687383,0,0.075466882,0.001802354,0.005960346,0.007635101,0.00055586,0.000303149,3.05970857448828e-05,0.017750418,0.457259307,0.128723651,0.000823153,0.001370097,29.97533798,23,34.23238373
Xiaoyeliu_5m_20210828,Xiaoyeliu,5m,Xiaoyeliu_5m_20210828,North,22.802199,121.2002613,0,0.191296314,0,0,0.007022737,0.009108141,0.015485954,0.000482988,0.001421943,0,0,0.00412268,0,0.015622553,2.18343205583711e-05,0,0.032563738,0,0,0,0.003977891,0.022239852,0,0.080697472,0.012103621,0.008444486,0.012788122,1.83284928756418e-05,0.000388649,0,0.001701831,0.547043279,0.023345746,0.006456069,0.003645773,29.97533798,23,34.23238373
Xiehe_5m_20210708,Xiehe,5m,Xiehe_5m_20210708,Penghu,25.159001,121.7404905,0,0.327556635,0,0,0,0,0.047646144,1.0614980941766e-05,1.32652762037415e-05,0,0,0,0,0.000887832,0.000144396,0,0.01587372,0,0,0,9.63228854685458e-05,0.002880746,0,0.128885913,0.007761958,0.003088791,0.003312361,0.000411068,0.000380732,0,0.000893969,0.413367256,0.010995467,0.016236598,0.019556208,29.65767288,18.93502998,29.44047356
Xijiyu_5m_20210501,Xijiyu,5m,Xijiyu_5m_20210501,Ludao,23.24467,119.61939,0,0.060375324,0,0,0.000356585,0.002055235,0,0,0,0,0,1.68891809692701e-05,0,0.180357671,2.36068095474163e-05,0,0.157426106,0,0,0.000137309,0.000727975,0.01043616,0,0.078334585,0.016449253,0.110097681,0.006616399,0,3.91157809914967e-05,0,0.001037557,0.346023142,0.01264472,0.002857179,0.013987506,29.74911118,19.81311798,38.36394882
Xingyuyu_5m_20220816,Xingyuyu,5m,Xingyuyu_5m_20220816,East,22.678667,121.50435,0,0.177139185,0,0,0.061434808,0.038985569,0,5.53436286267722e-05,0,0,0,0.000471056,0.001965614,0.044397742,0.001001886,0,0.023110064,0,0,7.85940525617612e-05,0.00394989,0.03087933,0,0.15539519,0.056990074,0.014327629,0.062217487,0,0.001014914,0,0.022195338,0.26383469,0.036181587,0.002115405,0.002258604,30.25894165,23.23961067,34.9747467
Xinshe_5m_20200813,Xinshe,5m,Xinshe_5m_20200813,East,23.6612445,121.5427645,0,0.153447178,3.71824697924905e-05,0,0,0.001950816,0.019301031,0.008628801,0.00850085,0,0,0.000259272,0,0.01808,0.000788863,0,0,0,0,0,0,0.000653776,0,0.010125642,0.000136673,0.000297692,0.000269485,0.003791614,0.000512504,1.63794079416561e-05,0.000963469,0.719984784,0.051194946,0.000186644,0.000872398,29.64877129,23.21208763,32.13161087
Xinshe_5m_20210825,Xinshe,5m,Xinshe_5m_20210825,East,23.6612445,121.5427645,0,0.240464429,0,0,0.000111497,0.001123348,0.009801955,0.002725556,0.004225792,0,0,0.004784084,0,0.004217082,0.000502661,0,0.013953612,0,0,0,0,0.008295787,0,0.060822959,0.008680445,0.001888198,0.002457279,0.000789505,0,0,0.000270446,0.598215119,0.031476716,0.004080317,0.001113216,29.64877129,23.21208763,32.13161087
Xinshe_5m_20220818,Xinshe,5m,Xinshe_5m_20220818,Penghu,23.6612445,121.5427645,0,0.164121119,0,0,0.000988639,0.005885942,0.000911238,0.000494687,0.016324651,0,0,0.009607782,0,0.022804212,0.013660829,0,0.002926222,0,0.007918369,0,0.000118254,0.00313955,0.000815357,0.106244001,0.030252571,0.019201823,0.001190012,0,0.000551931,2.44184667155036e-05,0.003467802,0.503644323,0.058594797,0.023201177,0.003910295,29.64877129,23.21208763,32.13161087
Xiyuping_5m_20210504,Xiyuping,5m,Xiyuping_5m_20210504,Ludao,23.2739,119.50825,0,0.218020435,0,0,0,0,0.011629336,1.27217333333333e-05,7.97421469149795e-05,0,0,1.216057106473e-05,0,0.004112162,0,0,0.014089956,0,0,0,0.032006655,0.22955898,0,0.014105384,0.125781368,0.038143181,0.019497082,2.3955557040955e-05,0,0,5.41974038722045e-05,0.271223692,0.020771768,0.000329828,0.000547395,29.39041519,19.47366142,38.04005051
Yanzidong_5m_20220701,Yanzidong,5m,Yanzidong_5m_20220701,Lanyu,22.678217,121.4981,0,0.184793693,0,0,0.003392157,0.002411827,0.000533039,0,3.33548762146842e-05,0,0,0.004559503,0.001808679,0.036658275,0.001284036,8.03208703770647e-05,0.023913394,0.00018052,0.000303577,0,0.000768257,0.018509208,0.00225603,0.228264682,0.048590976,0.073040636,0.020592439,0,0.001311354,0,0.027711747,0.268484146,0.046936115,0.001765809,0.001816224,30.25894165,23.23961067,34.9747467
Yayo_10m_20190729,Yayo,10m,Yayo_10m_20190729,Lanyu,22.0507825,121.5100035,0,0.117167343,0,0,0.000194352,0.004665136,0.001094903,0.000954145,3.53536317362925e-05,3.16864062665333e-05,0.000398453,0.002684466,0.005224771,0.00148826,0.004454035,0,0,0.000136508,0.000513401,9.86446005574843e-05,0.001515674,0.032289073,0.001352517,0.13124296,0.001924846,0.011023898,0.016735322,0,0.001633913,0.001322246,0.019172362,0.481816113,0.160829619,0,0,30.22652626,23.69605446,35.92948914
Yayo_5m_20220713,Yayo,5m,Yayo_5m_20220713,North,22.0507825,121.5100035,0,0.224506296,0,0,0.000356877,0,0.000262783,0,0.000299134,0,0,0,0.000362407,0.008506474,0.000274451,0,0.011037814,0,0,0,0.004428471,0.059236026,0.001642068,0.119958172,0.026881295,0.017197994,0.01099818,0,0.000722091,0,0.013294619,0.463638235,0.035612225,0.000566728,0.000217661,30.22652626,23.69605446,35.92948914
Yeliu_10m_20200622,Yeliu,10m,Yeliu_10m_20200622,North,25.203935,121.694484,0,0.271233625,2.49512051893629e-05,0,0.000499441,0.000211282,7.13626897202809e-05,0.000156449,0,0,0,0.000480874,0,0.000834823,0.000177582,0,0,0,0,0,0,0.009075315,0,0.204404759,0.002622993,0.004722257,0.005827762,0.000375948,0.001642839,0.000874703,0.001824125,0.429788353,0.056493769,0.008150947,0.00050584,29.77444839,18.56258011,29.52822876
Yeliu_5m_20210727,Yeliu,5m,Yeliu_5m_20210727,East,25.203935,121.694484,0,0.243676769,0,0,0.000149672,0,0.002446604,0.000139579,0.000124011,0,0,0,0,0.001669015,2.05001554926116e-05,0,0.012037466,0,0,0,0.001761503,0.022094357,0,0.127919169,0.011185967,0.008857761,0.003540556,0.000361246,0.004273747,0,0.001572208,0.289559847,0.017253018,0.070294527,0.181062478,29.77444839,18.56258011,29.52822876
Zhaoyang_5m_20230525,Zhaoyang,5m,Zhaoyang_5m_20230525,Xiaoliuqiu,24.4568,121.822333,0,0.118065672,0,0,0,0,0.005804918,0.00123829,0.001727712,0,0,0,0,0,0,0,0,0,0,0,2.77004475913472e-05,0.001441936,0,0.003283006,0.002271122,0.000299076,0.006173796,0.000100742,0.000356785,0,0.001455359,0.731574724,0.126107245,7.19166953100119e-05,0,29.58224487,22.35772896,29.60179901
Zhongao_Beach_5m_20200610,Zhongao_Beach,5m,Zhongao_Beach_5m_20200610,Xiaoliuqiu,22.351516,120.388079,0,0.058197741,0.000242773,0,0,0,0.00231381,0.001269007,2.07588095030507e-05,0,0,0.000819239,0.000407283,0.005895604,0.0029558,0,0.000163397,2.22611904539293e-05,0,0.001776221,0.000228817,0.00384358,4.17639903508985e-05,0.014613785,0.000418268,0.027346772,0.007103122,2.05834190270356e-05,0,0,0.004275892,0.411590123,0.456433397,0,0,30.60363007,22.28019142,40.00014877
Zhongao_Beach_5m_20210901,Zhongao_Beach,5m,Zhongao_Beach_5m_20210901,Ludao,22.351516,120.388079,0,0.160602871,0,0,0,0.001112172,0.001505138,8.47150545199474e-05,0.000316535,0,0,0.00090124,0,0.000805413,7.63048656490532e-05,0,0.000582988,0,0,0.000323808,0,0.000600011,0,0.019692238,0.001445527,0.009294187,0.000211012,0,0.000343545,1.28346223100004e-05,0.005967997,0.70414514,0.089748307,0.001845608,0.000382409,30.60363007,22.28019142,40.00014877
Zhongliaogang_5m_20220701,Zhongliaogang,5m,Zhongliaogang_5m_20220701,,22.678317,121.47335,0,0.093746365,0,0,0.013769567,0.000616648,2.32179905226265e-05,8.3901352415309e-05,0,0,0,0.000332575,0.000223709,0.017810191,0.000663917,0,0.008874609,0.000162725,0.000179766,0.000106565,0.002534401,0.014232229,0,0.212151438,0.019676219,0.03350643,0.024858127,0.000310133,0.000114281,0,0.008056034,0.436331657,0.109864456,0.001189756,0.000581083,30.25894165,23.23961067,35.27151871